Site,LAT,LONG ,Categorie,Pays,Continent,En danger
Cultural Landscape and Archaeological Remains of the Bamiyan Valley,34.84694,67.82525,Cultural,Afghanistan,Asia and the Pacific,1
Minaret and Archaeological Remains of Jam,34.39655556,64.51605556,Cultural,Afghanistan,Asia and the Pacific,1
Historic Centres of Berat and Gjirokastra ,40.06944444,20.13333333,Cultural,Albania,Europe and North America,0
Butrint,39.75111111,20.02611111,Cultural,Albania,Europe and North America,0
Al Qal'a of Beni Hammad,35.81844,4.78684,Cultural,Algeria,Arab States,0
M'Zab Valley,32.48333,3.68333,Cultural,Algeria,Arab States,0
Djémila,36.32056,5.73667,Cultural,Algeria,Arab States,0
Tipasa,36.55,2.383333333,Cultural,Algeria,Arab States,0
Timgad,35.45,6.63333,Cultural,Algeria,Arab States,0
Kasbah of Algiers,36.78333,3.06028,Cultural,Algeria,Arab States,0
Madriu-Perafita-Claror Valley,42.49472222,1.595555556,Cultural,Andorra,Europe and North America,0
Antigua Naval Dockyard and Related Archaeological Sites,17.0069444444,-61.7616666667,Cultural,Antigua and Barbuda,Latin America and the Caribbean,0
Cueva de las Manos Río Pinturas,-47.15,-70.66666667,Cultural,Argentina,Latin America and the Caribbean,0
Jesuit Block and Estancias of Córdoba,-31.42056,-64.19111,Cultural,Argentina,Latin America and the Caribbean,0
Quebrada de Humahuaca,-23.19986111,-65.34886111,Cultural,Argentina,Latin America and the Caribbean,0
Monasteries of Haghpat and Sanahin,41.095,44.71028,Cultural,Armenia,Europe and North America,0
Monastery of Geghard and the Upper Azat Valley,40.15889,44.79667,Cultural,Armenia,Europe and North America,0
Cathedral and Churches of Echmiatsin and the Archaeological Site of Zvartnots,40.15931,44.29514,Cultural,Armenia,Europe and North America,0
Sydney Opera House,-33.8566666667,151.2152777777,Cultural,Australia,Asia and the Pacific,0
Royal Exhibition Building and Carlton Gardens,-37.80611111,144.9702778,Cultural,Australia,Asia and the Pacific,0
Australian Convict Sites,-33.3783333333,150.9944444444,Cultural,Australia,Asia and the Pacific,0
Historic Centre of the City of Salzburg,47.80055556,13.04333333,Cultural,Austria,Europe and North America,0
Semmering Railway,47.64877778,15.82797222,Cultural,Austria,Europe and North America,0
Palace and Gardens of Schönbrunn,48.18666667,16.31333333,Cultural,Austria,Europe and North America,0
Hallstatt-Dachstein / Salzkammergut Cultural Landscape,47.55944444,13.64638889,Cultural,Austria,Europe and North America,0
City of Graz – Historic Centre and Schloss Eggenberg,47.0741666667,15.3916666667,Cultural,Austria,Europe and North America,0
Wachau Cultural Landscape,48.36444444,15.43416667,Cultural,Austria,Europe and North America,0
Historic Centre of Vienna,48.21666667,16.38333333,Cultural,Austria,Europe and North America,0
Walled City of Baku with the Shirvanshah's Palace and Maiden Tower,40.36666667,49.83333333,Cultural,Azerbaijan,Europe and North America,0
Gobustan Rock Art Cultural Landscape,40.125,49.375,Cultural,Azerbaijan,Europe and North America,0
Qal’at al-Bahrain – Ancient Harbour and Capital of Dilmun,26.23306,50.5272222222,Cultural,Bahrain,Arab States,0
Pearling Testimony of an Island Economy,26.24128,50.61351,Cultural,Bahrain,Arab States,0
Historic Mosque City of Bagerhat,22.66667,89.8,Cultural,Bangladesh,Asia and the Pacific,0
Ruins of the Buddhist Vihara at Paharpur,25.03333333,88.98333333,Cultural,Bangladesh,Asia and the Pacific,0
Historic Bridgetown and its Garrison,13.0966666667,-59.6138888889,Cultural,Barbados,Latin America and the Caribbean,0
Mir Castle Complex,53.45108333,26.47272222,Cultural,Belarus,Europe and North America,0
Architectural Residential and Cultural Complex of the Radziwill Family at Nesvizh,53.22278,26.69139,Cultural,Belarus,Europe and North America,0
Flemish Béguinages,51.03097222,4.47375,Cultural,Belgium,Europe and North America,0
The Four Lifts on the Canal du Centre and their Environs La Louvière and Le Roeulx (Hainaut),50.48111,4.13722,Cultural,Belgium,Europe and North America,0
La Grand-Place Brussels,50.84668,4.35242,Cultural,Belgium,Europe and North America,0
Historic Centre of Brugge,51.20891,3.22527,Cultural,Belgium,Europe and North America,0
Major Town Houses of the Architect Victor Horta (Brussels),50.82806,4.36223,Cultural,Belgium,Europe and North America,0
Neolithic Flint Mines at Spiennes (Mons),50.43077,3.97879,Cultural,Belgium,Europe and North America,0
Notre-Dame Cathedral in Tournai,50.60603,3.38926,Cultural,Belgium,Europe and North America,0
Plantin-Moretus House-Workshops-Museum Complex,51.21833,4.39778,Cultural,Belgium,Europe and North America,0
Stoclet House,50.835,4.4161111111,Cultural,Belgium,Europe and North America,0
Major Mining Sites of Wallonia,50.4352777778,3.8383333333,Cultural,Belgium,Europe and North America,0
Royal Palaces of Abomey,7.183333333,1.983333333,Cultural,Benin,Africa,0
City of Potosí,-19.58361,-65.75306,Cultural,Bolivia (Plurinational State of),Latin America and the Caribbean,1
Jesuit Missions of the Chiquitos,-16,-60.5,Cultural,Bolivia (Plurinational State of),Latin America and the Caribbean,0
Historic City of Sucre,-19.04306,-65.25917,Cultural,Bolivia (Plurinational State of),Latin America and the Caribbean,0
Tiwanaku: Spiritual and Political Centre of the Tiwanaku Culture,-16.55833333,-68.67778,Cultural,Bolivia (Plurinational State of),Latin America and the Caribbean,0
Fuerte de Samaipata,-18.16666667,-63.81666667,Cultural,Bolivia (Plurinational State of),Latin America and the Caribbean,0
Old Bridge Area of the Old City of Mostar,43.34812,17.81092,Cultural,Bosnia and Herzegovina,Europe and North America,0
Mehmed Paša Sokolović Bridge in Višegrad,43.7814444444,19.288025,Cultural,Bosnia and Herzegovina,Europe and North America,0
Tsodilo,-18.75,21.73333333,Cultural,Botswana,Africa,0
Historic Town of Ouro Preto,-20.38888889,-43.50555556,Cultural,Brazil,Latin America and the Caribbean,0
Historic Centre of the Town of Olinda,-8.013333333,-34.845,Cultural,Brazil,Latin America and the Caribbean,0
Historic Centre of Salvador de Bahia,-12.96666667,-38.5,Cultural,Brazil,Latin America and the Caribbean,0
Sanctuary of Bom Jesus do Congonhas,-20.49972222,-43.85777778,Cultural,Brazil,Latin America and the Caribbean,0
Brasilia,-15.78333,-47.9,Cultural,Brazil,Latin America and the Caribbean,0
Serra da Capivara National Park,-8.416666667,-42.33333333,Cultural,Brazil,Latin America and the Caribbean,0
Historic Centre of São Luís,-2.514166667,-44.3025,Cultural,Brazil,Latin America and the Caribbean,0
Historic Centre of the Town of Diamantina,-18.23333333,-43.6,Cultural,Brazil,Latin America and the Caribbean,0
Historic Centre of the Town of Goiás,-15.93328,-50.13336,Cultural,Brazil,Latin America and the Caribbean,0
Rio de Janeiro: Carioca Landscapes between the Mountain and the Sea,-22.9477777778,-43.2913888889,Cultural,Brazil,Latin America and the Caribbean,0
São Francisco Square in the Town of São Cristóvão,-11.0161111111,-37.21,Cultural,Brazil,Latin America and the Caribbean,0
Pampulha Modern Ensemble,-19.8519444444,-43.9736111111,Cultural,Brazil,Latin America and the Caribbean,0
Boyana Church,42.65,23.26666667,Cultural,Bulgaria,Europe and North America,0
Madara Rider,43.3,27.15,Cultural,Bulgaria,Europe and North America,0
Thracian Tomb of Kazanlak,42.61666667,25.4,Cultural,Bulgaria,Europe and North America,0
Rock-Hewn Churches of Ivanovo,43.71666667,25.96666667,Cultural,Bulgaria,Europe and North America,0
Rila Monastery,42.11666667,23.4,Cultural,Bulgaria,Europe and North America,0
Ancient City of Nessebar,42.65611,27.73,Cultural,Bulgaria,Europe and North America,0
Thracian Tomb of Sveshtari,43.66667,26.66667,Cultural,Bulgaria,Europe and North America,0
Ruins of Loropéni,10.25,-3.5833333333,Cultural,Burkina Faso,Africa,0
Cidade Velha Historic Centre of Ribeira Grande,14.9151388889,-23.6051944444,Cultural,Cabo Verde,Africa,0
Angkor,13.43333333,103.8333333,Cultural,Cambodia,Asia and the Pacific,0
Temple of Preah Vihear,14.3883333333,104.6838888889,Cultural,Cambodia,Asia and the Pacific,0
L’Anse aux Meadows National Historic Site,51.46666667,-55.61666667,Cultural,Canada,Europe and North America,0
Sgang Gwaay,52.095,-131.2202778,Cultural,Canada,Europe and North America,0
Head-Smashed-In Buffalo Jump,49.74944444,-113.6238889,Cultural,Canada,Europe and North America,0
Historic District of Old Québec,46.80944444,-71.21055556,Cultural,Canada,Europe and North America,0
Old Town Lunenburg,44.37611111,-64.30916667,Cultural,Canada,Europe and North America,0
Rideau Canal,44.9943861111,-75.765125,Cultural,Canada,Europe and North America,0
Landscape of Grand Pré,45.1183333333,-64.3072222222,Cultural,Canada,Europe and North America,0
Red Bay Basque Whaling Station,51.726925,-56.4295222222,Cultural,Canada,Europe and North America,0
Rapa Nui National Park,-27.15,-109.45,Cultural,Chile,Latin America and the Caribbean,0
Historic Quarter of the Seaport City of Valparaíso,-33.04063889,-71.628,Cultural,Chile,Latin America and the Caribbean,0
Churches of Chiloé,-42.5,-73.76666667,Cultural,Chile,Latin America and the Caribbean,0
Humberstone and Santa Laura Saltpeter Works,-20.20582,-69.79406,Cultural,Chile,Latin America and the Caribbean,1
Sewell Mining Town,-34.0844444444,-70.3827777777,Cultural,Chile,Latin America and the Caribbean,0
The Great Wall,40.41667,116.08333,Cultural,China,Asia and the Pacific,0
Imperial Palaces of the Ming and Qing Dynasties in Beijing and Shenyang,41.79416667,123.4469444,Cultural,China,Asia and the Pacific,0
Mogao Caves,40.13333,94.81667,Cultural,China,Asia and the Pacific,0
Mausoleum of the First Qin Emperor,34.38333333,109.1,Cultural,China,Asia and the Pacific,0
Peking Man Site at Zhoukoudian,39.73333333,115.9166667,Cultural,China,Asia and the Pacific,0
Mountain Resort and its Outlying Temples Chengde,40.98694,117.93833,Cultural,China,Asia and the Pacific,0
Temple and Cemetery of Confucius and the Kong Family Mansion in Qufu,35.61167,116.975,Cultural,China,Asia and the Pacific,0
Ancient Building Complex in the Wudang Mountains,32.46667,111,Cultural,China,Asia and the Pacific,0
Historic Ensemble of the Potala Palace Lhasa,29.65792,91.11717,Cultural,China,Asia and the Pacific,0
Lushan National Park,29.43333333,115.8666667,Cultural,China,Asia and the Pacific,0
Old Town of Lijiang,26.86667,100.23333,Cultural,China,Asia and the Pacific,0
Ancient City of Ping Yao,37.20139,112.15444,Cultural,China,Asia and the Pacific,0
Classical Gardens of Suzhou,31.31666667,120.45,Cultural,China,Asia and the Pacific,0
Summer Palace an Imperial Garden in Beijing,39.91055556,116.1411111,Cultural,China,Asia and the Pacific,0
Temple of Heaven: an Imperial Sacrificial Altar in Beijing,39.84555556,116.4447222,Cultural,China,Asia and the Pacific,0
Dazu Rock Carvings,29.70111,105.705,Cultural,China,Asia and the Pacific,0
Mount Qingcheng and the Dujiangyan Irrigation System,31.00167,103.60528,Cultural,China,Asia and the Pacific,0
Ancient Villages in Southern Anhui – Xidi and Hongcun,29.90444444,117.9875,Cultural,China,Asia and the Pacific,0
Longmen Grottoes,34.46666667,112.4666667,Cultural,China,Asia and the Pacific,0
Imperial Tombs of the Ming and Qing Dynasties,41.70722222,124.7938889,Cultural,China,Asia and the Pacific,0
Yungang Grottoes,40.10972,113.12222,Cultural,China,Asia and the Pacific,0
Historic Centre of Macao,22.1912919444,113.5364611111,Cultural,China,Asia and the Pacific,0
Cultural Landscape of Honghe Hani Rice Terraces ,23.0932777778,102.7799805556,Cultural,China,Asia and the Pacific,0
Kaiping Diaolou and Villages,22.2855194444,112.5658611111,Cultural,China,Asia and the Pacific,0
Fujian Tulou,25.0230555556,117.6858333333,Cultural,China,Asia and the Pacific,0
Yin Xu,36.1266666666,114.3138888888,Cultural,China,Asia and the Pacific,0
Capital Cities and Tombs of the Ancient Koguryo Kingdom,41.15694444,126.1872222,Cultural,China,Asia and the Pacific,0
Mount Wutai,39.0305555556,113.5633333333,Cultural,China,Asia and the Pacific,0
Historic Monuments of Dengfeng in “The Centre of Heaven and Earth”,34.4587472222,113.0677194444,Cultural,China,Asia and the Pacific,0
West Lake Cultural Landscape of Hangzhou,30.2375,120.1408333333,Cultural,China,Asia and the Pacific,0
Site of Xanadu,42.358,116.1851277778,Cultural,China,Asia and the Pacific,0
The Grand Canal,34.6938888889,112.4683333333,Cultural,China,Asia and the Pacific,0
Tusi Sites,28.9986111111,109.9669444444,Cultural,China,Asia and the Pacific,0
Zuojiang Huashan Rock Art Cultural Landscape,22.2555555556,107.0230555556,Cultural,China,Asia and the Pacific,0
Port Fortresses and Group of Monuments Cartagena,10.41666667,-75.53333333,Cultural,Colombia,Latin America and the Caribbean,0
Historic Centre of Santa Cruz de Mompox,9.233333333,-74.43333333,Cultural,Colombia,Latin America and the Caribbean,0
National Archeological Park of Tierradentro,2.583333333,-76.03333333,Cultural,Colombia,Latin America and the Caribbean,0
San Agustín Archaeological Park,1.916666667,-76.23333333,Cultural,Colombia,Latin America and the Caribbean,0
Coffee Cultural Landscape of Colombia,5.4716666667,-75.6816666667,Cultural,Colombia,Latin America and the Caribbean,0
Precolumbian Chiefdom Settlements with Stone Spheres of the Diquís,8.9113888889,-83.4775,Cultural,Costa Rica,Latin America and the Caribbean,0
Historic Town of Grand-Bassam,5.1958333333,3.7363888889,Cultural,Côte d'Ivoire,Africa,0
Old City of Dubrovnik,42.65056,18.09139,Cultural,Croatia,Europe and North America,0
Historical Complex of Split with the Palace of Diocletian,43.50944,16.44333,Cultural,Croatia,Europe and North America,0
Episcopal Complex of the Euphrasian Basilica in the Historic Centre of Poreč,45.22917,13.59444,Cultural,Croatia,Europe and North America,0
Historic City of Trogir,43.5125,16.25167,Cultural,Croatia,Europe and North America,0
The Cathedral of St James in Šibenik,43.73629,15.89038,Cultural,Croatia,Europe and North America,0
Stari Grad Plain,43.1816666667,16.6386111111,Cultural,Croatia,Europe and North America,0
Old Havana and its Fortification System,23.13333333,-82.35,Cultural,Cuba,Latin America and the Caribbean,0
Trinidad and the Valley de los Ingenios,21.80305556,-79.98444444,Cultural,Cuba,Latin America and the Caribbean,0
Viñales Valley,22.61667,-83.71667,Cultural,Cuba,Latin America and the Caribbean,0
San Pedro de la Roca Castle Santiago de Cuba,19.96666667,-75.87083333,Cultural,Cuba,Latin America and the Caribbean,0
Archaeological Landscape of the First Coffee Plantations in the South-East of Cuba,20.03,-75.39138889,Cultural,Cuba,Latin America and the Caribbean,0
Urban Historic Centre of Cienfuegos ,22.14722,-80.45278,Cultural,Cuba,Latin America and the Caribbean,0
Historic Centre of Camagüey,21.3786111111,-77.9186111111,Cultural,Cuba,Latin America and the Caribbean,0
Paphos,34.75833,32.40556,Cultural,Cyprus,Europe and North America,0
Painted Churches in the Troodos Region,34.92027778,33.09583333,Cultural,Cyprus,Europe and North America,0
Choirokoitia,34.79833,33.34333,Cultural,Cyprus,Europe and North America,0
Historic Centre of Prague,50.08972,14.41944,Cultural,Czechia,Europe and North America,0
Historic Centre of Český Krumlov,48.81666667,14.31666667,Cultural,Czechia,Europe and North America,0
Historic Centre of Telč,49.18333,15.45,Cultural,Czechia,Europe and North America,0
Pilgrimage Church of St John of Nepomuk at Zelená Hora,49.5802,15.9420583333,Cultural,Czechia,Europe and North America,0
Kutná Hora: Historical Town Centre with the Church of St Barbara and the Cathedral of Our Lady at Sedlec,49.95,15.2666666667,Cultural,Czechia,Europe and North America,0
Lednice-Valtice Cultural Landscape,48.77583,16.775,Cultural,Czechia,Europe and North America,0
Holy Trinity Column in Olomouc,49.5939361111,17.2504583333,Cultural,Czechia,Europe and North America,0
Gardens and Castle at Kroměříž,49.3,17.37722222,Cultural,Czechia,Europe and North America,0
Holašovice Historic Village,48.95972222,14.25277778,Cultural,Czechia,Europe and North America,0
Litomyšl Castle,49.87361,16.31444,Cultural,Czechia,Europe and North America,0
Tugendhat Villa in Brno,49.2071833333,16.6160555556,Cultural,Czechia,Europe and North America,0
Jewish Quarter and St Procopius' Basilica in Třebíč,49.21722222,15.87888889,Cultural,Czechia,Europe and North America,0
Complex of Koguryo Tombs,38.86305556,125.415,Cultural,Democratic People's Republic of Korea,Asia and the Pacific,0
Historic Monuments and Sites in Kaesong,37.9816666667,126.5080555556,Cultural,Democratic People's Republic of Korea,Asia and the Pacific,0
Roskilde Cathedral,55.64222222,12.07972222,Cultural,Denmark,Europe and North America,0
Kronborg Castle,56.03889,12.62083333,Cultural,Denmark,Europe and North America,0
Jelling Mounds Runic Stones and Church,55.75638889,9.42,Cultural,Denmark,Europe and North America,0
Christiansfeld a Moravian Church Settlement,55.3555555556,9.4813888889,Cultural,Denmark,Europe and North America,0
The par force hunting landscape in North Zealand,55.9136111111,12.3577777778,Cultural,Denmark,Europe and North America,0
Colonial City of Santo Domingo,18.48333333,-69.91666667,Cultural,Dominican Republic,Latin America and the Caribbean,0
City of Quito,-0.003888889,-78.5,Cultural,Ecuador,Latin America and the Caribbean,0
Historic Centre of Santa Ana de los Ríos de Cuenca,-2.883333333,-78.98333333,Cultural,Ecuador,Latin America and the Caribbean,0
Memphis and its Necropolis – the Pyramid Fields from Giza to Dahshur,29.97604,31.13041,Cultural,Egypt,Arab States,0
Ancient Thebes with its Necropolis,25.73333,32.6,Cultural,Egypt,Arab States,0
Nubian Monuments from Abu Simbel to Philae,22.33639,31.62611,Cultural,Egypt,Arab States,0
Historic Cairo,30.05,31.26111,Cultural,Egypt,Arab States,0
Abu Mena,30.8358333333,29.66666667,Cultural,Egypt,Arab States,1
Saint Catherine Area,28.55623,33.97543,Cultural,Egypt,Arab States,0
Joya de Cerén Archaeological Site,13.8275,-89.36916667,Cultural,El Salvador,Latin America and the Caribbean,0
Historic Centre (Old Town) of Tallinn,59.43333,24.73333333,Cultural,Estonia,Europe and North America,0
Lower Valley of the Awash,11.10006,40.57939,Cultural,Ethiopia,Africa,0
Tiya,8.43491,38.6121,Cultural,Ethiopia,Africa,0
Aksum,14.13019,38.71861,Cultural,Ethiopia,Africa,0
Lower Valley of the Omo,4.8,35.96666667,Cultural,Ethiopia,Africa,0
Rock-Hewn Churches Lalibela,12.02935,39.04042,Cultural,Ethiopia,Africa,0
Fasil Ghebbi Gondar Region,12.60692,37.46617,Cultural,Ethiopia,Africa,0
Harar Jugol the Fortified Historic Town,9.3088888888,42.1377777777,Cultural,Ethiopia,Africa,0
Konso Cultural Landscape,5.3,37.4,Cultural,Ethiopia,Africa,0
Levuka Historical Port Town,-17.6833777778,178.8345333333,Cultural,Fiji,Asia and the Pacific,0
Bronze Age Burial Site of Sammallahdenmäki,61.12056,21.7775,Cultural,Finland,Europe and North America,0
Old Rauma,61.12806,21.51167,Cultural,Finland,Europe and North America,0
Fortress of Suomenlinna,60.14722,24.98722,Cultural,Finland,Europe and North America,0
Petäjävesi Old Church,62.25,25.18333,Cultural,Finland,Europe and North America,0
Verla Groundwood and Board Mill,61.06194,26.64083,Cultural,Finland,Europe and North America,0
Mont-Saint-Michel and its Bay,48.63556,-1.51056,Cultural,France,Europe and North America,0
Chartres Cathedral,48.4475,1.487222222,Cultural,France,Europe and North America,0
Palace and Park of Versailles,48.805,2.119444444,Cultural,France,Europe and North America,0
Vézelay Church and Hill,47.46638889,3.748333333,Cultural,France,Europe and North America,0
Prehistoric Sites and Decorated Caves of the Vézère Valley,45.0575,1.17,Cultural,France,Europe and North America,0
Palace and Park of Fontainebleau,48.40194444,2.698055556,Cultural,France,Europe and North America,0
Amiens Cathedral,49.895,2.301666667,Cultural,France,Europe and North America,0
"Roman Theatre and its Surroundings and the ""Triumphal Arch"" of Orange",44.13572222,4.808416667,Cultural,France,Europe and North America,0
Arles Roman and Romanesque Monuments,43.67763889,4.630694444,Cultural,France,Europe and North America,0
Cistercian Abbey of Fontenay,47.63944,4.38911,Cultural,France,Europe and North America,0
From the Great Saltworks of Salins-les-Bains to the Royal Saltworks of Arc-et-Senans the Production of Open-pan Salt ,46.9375,5.8763888889,Cultural,France,Europe and North America,0
Historic Centre of Avignon: Papal Palace Episcopal Ensemble and Avignon Bridge,43.95277778,4.806111111,Cultural,France,Europe and North America,0
Place Stanislas Place de la Carrière and Place d'Alliance in Nancy,48.69361111,6.183333333,Cultural,France,Europe and North America,0
Abbey Church of Saint-Savin sur Gartempe,46.56472,0.86611,Cultural,France,Europe and North America,0
Pont du Gard (Roman Aqueduct),43.94722222,4.535277778,Cultural,France,Europe and North America,0
Historic Fortified City of Carcassonne,43.21055556,2.358888889,Cultural,France,Europe and North America,0
Strasbourg – Grande île,48.58138889,7.7480555556,Cultural,France,Europe and North America,0
Paris Banks of the Seine,48.85833333,2.294166667,Cultural,France,Europe and North America,0
Cathedral of Notre-Dame Former Abbey of Saint-Rémi and Palace of Tau Reims,49.25333333,4.032777778,Cultural,France,Europe and North America,0
Bourges Cathedral,47.08222222,2.398333333,Cultural,France,Europe and North America,0
Canal du Midi,43.61138889,1.416388889,Cultural,France,Europe and North America,0
Routes of Santiago de Compostela in France,45.18405556,0.722944444,Cultural,France,Europe and North America,0
Historic Site of Lyon,45.76722,4.83333,Cultural,France,Europe and North America,0
Provins Town of Medieval Fairs,48.55972222,3.298888889,Cultural,France,Europe and North America,0
Jurisdiction of Saint-Emilion,44.89472222,-0.155277778,Cultural,France,Europe and North America,0
The Loire Valley between Sully-sur-Loire and Chalonnes,47.39889,0.70278,Cultural,France,Europe and North America,0
The Causses and the Cévennes Mediterranean agro-pastoral Cultural Landscape,44.2202777778,3.4730555556,Cultural,France,Europe and North America,0
Le Havre the City Rebuilt by Auguste Perret,49.49278,0.1075,Cultural,France,Europe and North America,0
Bordeaux Port of the Moon,44.8388888889,-0.5722222222,Cultural,France,Europe and North America,0
Fortifications of Vauban,47.2361111111,6.0269444444,Cultural,France,Europe and North America,0
Episcopal City of Albi,43.9283333333,2.1425,Cultural,France,Europe and North America,0
Nord-Pas de Calais Mining Basin,50.4625,3.5461111111,Cultural,France,Europe and North America,0
The Climats terroirs of Burgundy,47.0580555556,4.8644444444,Cultural,France,Europe and North America,0
Decorated Cave of Pont d’Arc known as Grotte Chauvet-Pont d’Arc Ardèche,44.3875,4.4161111111,Cultural,France,Europe and North America,0
Champagne Hillsides Houses and Cellars,49.0775,3.9461111111,Cultural,France,Europe and North America,0
Kunta Kinteh Island and Related Sites,13.31616667,-16.35719444,Cultural,Gambia (the),Africa,0
Historical Monuments of Mtskheta,41.84389,44.71639,Cultural,Georgia,Europe and North America,0
Upper Svaneti,42.91639,43.01139,Cultural,Georgia,Europe and North America,0
Bagrati Cathedral and Gelati Monastery,42.26222,42.71639,Cultural,Georgia,Europe and North America,1
Aachen Cathedral ,50.77444444,6.084444444,Cultural,Germany,Europe and North America,0
Speyer Cathedral,49.31666667,8.443055556,Cultural,Germany,Europe and North America,0
Würzburg Residence with the Court Gardens and Residence Square,49.79278,9.93889,Cultural,Germany,Europe and North America,0
St Mary's Cathedral and St Michael's Church at Hildesheim,52.15278,9.94389,Cultural,Germany,Europe and North America,0
Pilgrimage Church of Wies,47.68127778,10.90013889,Cultural,Germany,Europe and North America,0
Hanseatic City of Lübeck,53.86667,10.69167,Cultural,Germany,Europe and North America,0
Castles of Augustusburg and Falkenlust at Brühl,50.82502778,6.909777778,Cultural,Germany,Europe and North America,0
Cologne Cathedral,50.94111111,6.957222222,Cultural,Germany,Europe and North America,0
Roman Monuments Cathedral of St Peter and Church of Our Lady in Trier,49.75,6.633333333,Cultural,Germany,Europe and North America,0
Abbey and Altenmünster of Lorsch,49.65369,8.56858,Cultural,Germany,Europe and North America,0
Palaces and Parks of Potsdam and Berlin,52.4,13.03333333,Cultural,Germany,Europe and North America,0
Garden Kingdom of Dessau-Wörlitz,51.8425,12.42083,Cultural,Germany,Europe and North America,0
Collegiate Church Castle and Old Town of Quedlinburg,51.78333,11.15,Cultural,Germany,Europe and North America,0
Maulbronn Monastery Complex,49.00083,8.81306,Cultural,Germany,Europe and North America,0
Mines of Rammelsberg Historic Town of Goslar and Upper Harz Water Management  System,51.82,10.34,Cultural,Germany,Europe and North America,0
Town of Bamberg,49.89166667,10.88888889,Cultural,Germany,Europe and North America,0
Völklingen Ironworks,49.24444,6.85,Cultural,Germany,Europe and North America,0
Bauhaus and its Sites in Weimar and Dessau,50.97477,11.32949,Cultural,Germany,Europe and North America,0
Luther Memorials in Eisleben and Wittenberg,51.86472,12.65278,Cultural,Germany,Europe and North America,0
Classical Weimar,50.9775,11.32861,Cultural,Germany,Europe and North America,0
Museumsinsel (Museum Island) Berlin,52.51972222,13.39861111,Cultural,Germany,Europe and North America,0
Wartburg Castle,50.96677778,10.307,Cultural,Germany,Europe and North America,0
Monastic Island of Reichenau,47.69872222,9.061305556,Cultural,Germany,Europe and North America,0
Zollverein Coal Mine Industrial Complex in Essen,51.49138889,7.046111111,Cultural,Germany,Europe and North America,0
Upper Middle Rhine Valley,50.17361111,7.694166667,Cultural,Germany,Europe and North America,0
Historic Centres of Stralsund and Wismar,54.3025,13.08527778,Cultural,Germany,Europe and North America,0
Town Hall and Roland on the Marketplace of Bremen,53.07597222,8.807472222,Cultural,Germany,Europe and North America,0
Old town of Regensburg with Stadtamhof,49.02055556,12.09916667,Cultural,Germany,Europe and North America,0
Berlin Modernism Housing Estates,52.4483333333,13.45,Cultural,Germany,Europe and North America,0
Fagus Factory in Alfeld,51.9836111111,9.8111111111,Cultural,Germany,Europe and North America,0
Margravial Opera House Bayreuth,49.9444444444,11.5786111111,Cultural,Germany,Europe and North America,0
Bergpark Wilhelmshöhe,51.3158333333,9.3930555556,Cultural,Germany,Europe and North America,0
Carolingian Westwork and Civitas Corvey,51.7782777778,9.41025,Cultural,Germany,Europe and North America,0
Speicherstadt and Kontorhaus District with Chilehaus,53.5455555556,9.9994444444,Cultural,Germany,Europe and North America,0
Forts and Castles Volta Greater Accra Central and Western Regions,5.39103,-0.49361,Cultural,Ghana,Africa,0
Asante Traditional Buildings,6.4011111111,-1.6258333333,Cultural,Ghana,Africa,0
Temple of Apollo Epicurius at Bassae,37.43498,21.89694,Cultural,Greece,Europe and North America,0
Archaeological Site of Delphi,38.48149,22.49617,Cultural,Greece,Europe and North America,0
Acropolis Athens,37.97087,23.72618,Cultural,Greece,Europe and North America,0
Paleochristian and Byzantine Monuments of Thessalonika,40.63833,22.965,Cultural,Greece,Europe and North America,0
Sanctuary of Asklepios at Epidaurus,37.66666667,23.11666667,Cultural,Greece,Europe and North America,0
Medieval City of Rhodes,36.44722,28.22778,Cultural,Greece,Europe and North America,0
Archaeological Site of Mystras,37.08056,22.36667,Cultural,Greece,Europe and North America,0
Archaeological Site of Olympia,37.65,21.66666667,Cultural,Greece,Europe and North America,0
Delos,37.4,25.26667,Cultural,Greece,Europe and North America,0
Monasteries of Daphni Hosios Loukas and Nea Moni of Chios,38.4,22.75,Cultural,Greece,Europe and North America,0
Pythagoreion and Heraion of Samos,37.69083,26.94333,Cultural,Greece,Europe and North America,0
Archaeological Site of Aigai (modern name Vergina),40.47139,22.31833,Cultural,Greece,Europe and North America,0
Archaeological Sites of Mycenae and Tiryns,37.73333333,22.75,Cultural,Greece,Europe and North America,0
The Historic Centre (Chorá) with the Monastery of Saint-John the Theologian and the Cave of the Apocalypse on the Island of Pátmos,37.3,26.55,Cultural,Greece,Europe and North America,0
Old Town of Corfu,39.6239413889,19.9275,Cultural,Greece,Europe and North America,0
Archaeological Site of Philippi,41.0147222222,24.2852777778,Cultural,Greece,Europe and North America,0
Antigua Guatemala,14.56666667,-90.66666667,Cultural,Guatemala,Latin America and the Caribbean,0
Archaeological Park and Ruins of Quirigua,15.27059,-89.04025,Cultural,Guatemala,Latin America and the Caribbean,0
National History Park – Citadel Sans Souci Ramiers,19.57361,-72.24417,Cultural,Haiti,Latin America and the Caribbean,0
Vatican City,41.90216,12.45736,Cultural,Holy See,Europe and North America,0
Maya Site of Copan,14.85,-89.13333,Cultural,Honduras,Latin America and the Caribbean,0
Budapest including the Banks of the Danube the Buda Castle Quarter and Andrássy Avenue,47.48242,19.07067,Cultural,Hungary,Europe and North America,0
Old Village of Hollókő and its Surroundings,47.99444,19.52917,Cultural,Hungary,Europe and North America,0
Hortobágy National Park - the Puszta,47.59458,21.15678,Cultural,Hungary,Europe and North America,0
Millenary Benedictine Abbey of Pannonhalma and its Natural Environment,47.55889,17.78444,Cultural,Hungary,Europe and North America,0
Early Christian Necropolis of Pécs (Sopianae),46.07444,18.22778,Cultural,Hungary,Europe and North America,0
Tokaj Wine Region Historic Cultural Landscape,48.15,21.35,Cultural,Hungary,Europe and North America,0
Þingvellir National Park,64.25380556,-21.03725,Cultural,Iceland,Europe and North America,0
Red Fort Complex,28.6555555556,77.2408333333,Cultural,India,Asia and the Pacific,0
Humayun's Tomb Delhi,28.59333,77.25056,Cultural,India,Asia and the Pacific,0
Qutb Minar and its Monuments Delhi,28.52583,77.18528,Cultural,India,Asia and the Pacific,0
Churches and Convents of Goa,15.50222,73.91167,Cultural,India,Asia and the Pacific,0
Group of Monuments at Pattadakal,15.94833,75.81667,Cultural,India,Asia and the Pacific,0
Khajuraho Group of Monuments,24.85222,79.92222,Cultural,India,Asia and the Pacific,0
Group of Monuments at Hampi,15.31444,76.47167,Cultural,India,Asia and the Pacific,0
Ajanta Caves,20.55333,75.7,Cultural,India,Asia and the Pacific,0
Ellora Caves,20.02639,75.17917,Cultural,India,Asia and the Pacific,0
Elephanta Caves,18.96667,72.93583,Cultural,India,Asia and the Pacific,0
Sun Temple Konârak,19.8875,86.09472,Cultural,India,Asia and the Pacific,0
Hill Forts of Rajasthan,24.8833333333,74.6461111111,Cultural,India,Asia and the Pacific,0
Group of Monuments at Mahabalipuram,12.61667,80.19167,Cultural,India,Asia and the Pacific,0
Great Living Chola Temples,10.78305556,79.1325,Cultural,India,Asia and the Pacific,0
Agra Fort,27.18333333,78.03333333,Cultural,India,Asia and the Pacific,0
Taj Mahal,27.17417,78.04222,Cultural,India,Asia and the Pacific,0
Fatehpur Sikri,27.09444,77.66417,Cultural,India,Asia and the Pacific,0
Buddhist Monuments at Sanchi,23.47944,77.73972,Cultural,India,Asia and the Pacific,0
Rani-ki-Vav (the Queen’s Stepwell) at Patan Gujarat,23.8588888889,72.1016666667,Cultural,India,Asia and the Pacific,0
Rock Shelters of Bhimbetka,22.92777778,77.58333333,Cultural,India,Asia and the Pacific,0
Mountain Railways of India,11.51028,76.93583,Cultural,India,Asia and the Pacific,0
Chhatrapati Shivaji Terminus (formerly Victoria Terminus),18.9401222222,72.8362027777,Cultural,India,Asia and the Pacific,0
Mahabodhi Temple Complex at Bodh Gaya,24.69528,84.99389,Cultural,India,Asia and the Pacific,0
Champaner-Pavagadh Archaeological Park,22.48333333,73.53333333,Cultural,India,Asia and the Pacific,0
The Jantar Mantar Jaipur,26.9247222222,75.825,Cultural,India,Asia and the Pacific,0
Archaeological Site of Nalanda Mahavihara (Nalanda University) at Nalanda Bihar,25.1366666667,85.4438888889,Cultural,India,Asia and the Pacific,0
Borobudur Temple Compounds,-7.60778,110.20361,Cultural,Indonesia,Asia and the Pacific,0
Sangiran Early Man Site,-7.4,110.8166667,Cultural,Indonesia,Asia and the Pacific,0
Prambanan Temple Compounds,-7.75222,110.49167,Cultural,Indonesia,Asia and the Pacific,0
Cultural Landscape of Bali Province: the Subak System as a Manifestation of the Tri Hita Karana Philosophy,-8.2591666667,115.4027777778,Cultural,Indonesia,Asia and the Pacific,0
Tchogha Zanbil,32.0833,48.53333333,Cultural,Iran (Islamic Republic of),Asia and the Pacific,0
Persepolis,29.93444,52.89028,Cultural,Iran (Islamic Republic of),Asia and the Pacific,0
Meidan Emam Esfahan,32.65745,51.6777777777,Cultural,Iran (Islamic Republic of),Asia and the Pacific,0
Takht-e Soleyman,36.60388889,47.235,Cultural,Iran (Islamic Republic of),Asia and the Pacific,0
Pasargadae,30.19383,53.16729,Cultural,Iran (Islamic Republic of),Asia and the Pacific,0
Soltaniyeh,36.43528,48.79667,Cultural,Iran (Islamic Republic of),Asia and the Pacific,0
Bam and its Cultural Landscape,29.11683,58.3666666667,Cultural,Iran (Islamic Republic of),Asia and the Pacific,0
Bisotun,34.3883333333,47.4366666666,Cultural,Iran (Islamic Republic of),Asia and the Pacific,0
Armenian Monastic Ensembles of Iran,38.9788888889,45.4733333333,Cultural,Iran (Islamic Republic of),Asia and the Pacific,0
Shushtar Historical Hydraulic System,32.0186111111,48.8358333333,Cultural,Iran (Islamic Republic of),Asia and the Pacific,0
Sheikh Safi al-din Khānegāh and Shrine Ensemble in Ardabil,38.2486111111,48.2913888889,Cultural,Iran (Islamic Republic of),Asia and the Pacific,0
Tabriz Historic Bazaar Complex,38.0813888889,46.2930555556,Cultural,Iran (Islamic Republic of),Asia and the Pacific,0
The Persian Garden,30.1666666667,53.1666666667,Cultural,Iran (Islamic Republic of),Asia and the Pacific,0
Masjed-e Jāmé of Isfahan  ,32.6697222222,51.6852777778,Cultural,Iran (Islamic Republic of),Asia and the Pacific,0
Gonbad-e Qābus,37.2580277778,55.169,Cultural,Iran (Islamic Republic of),Asia and the Pacific,0
Golestan Palace,35.6803666667,51.4205111111,Cultural,Iran (Islamic Republic of),Asia and the Pacific,0
Cultural Landscape of Maymand,30.1680555556,55.3755555556,Cultural,Iran (Islamic Republic of),Asia and the Pacific,0
Susa,32.1894444444,48.2561111111,Cultural,Iran (Islamic Republic of),Asia and the Pacific,0
Shahr-i Sokhta,30.5938888889,61.3277777778,Cultural,Iran (Islamic Republic of),Asia and the Pacific,0
The Persian Qanat,34.29,58.6544444444,Cultural,Iran (Islamic Republic of),Asia and the Pacific,0
Samarra Archaeological City,34.3409894444,43.8235430555,Cultural,Iraq,Arab States,1
Hatra,35.58806,42.71833,Cultural,Iraq,Arab States,1
Ashur (Qal'at Sherqat),35.45889,43.25972,Cultural,Iraq,Arab States,1
Erbil Citadel,36.1911111111,44.0091666667,Cultural,Iraq,Arab States,0
Brú na Bóinne - Archaeological Ensemble of the Bend of the Boyne,53.69167,-6.45,Cultural,Ireland,Europe and North America,0
Sceilg Mhichíl,51.77194,-10.53861,Cultural,Ireland,Europe and North America,0
Masada,31.3135,35.35275,Cultural,Israel,Europe and North America,0
Old City of Acre,32.92833333,35.08388889,Cultural,Israel,Europe and North America,0
White City of Tel-Aviv -- the Modern Movement,32.06666667,34.78333333,Cultural,Israel,Europe and North America,0
Incense Route - Desert Cities in the Negev,30.54111,35.16083,Cultural,Israel,Europe and North America,0
Biblical Tels - Megiddo Hazor Beer Sheba,32.59722,35.18222,Cultural,Israel,Europe and North America,0
Bahá’i Holy Places in Haifa and the Western Galilee,32.8293966667,34.9716488888,Cultural,Israel,Europe and North America,0
Caves of Maresha and Bet-Guvrin in the Judean Lowlands as a Microcosm of the Land of the Caves,31.6,34.8955555556,Cultural,Israel,Europe and North America,0
Sites of Human Evolution at Mount Carmel: The Nahal Me’arot / Wadi el-Mughara Caves,32.67,34.9652777778,Cultural,Israel,Europe and North America,0
Necropolis of Bet She’arim: A Landmark of Jewish Renewal,32.7022222222,35.1269444444,Cultural,Israel,Europe and North America,0
Church and Dominican Convent of Santa Maria delle Grazie with “The Last Supper” by Leonardo da Vinci,45.46588889,9.1705,Cultural,Italy,Europe and North America,0
Rock Drawings in Valcamonica,45.95705556,10.29733333,Cultural,Italy,Europe and North America,0
Historic Centre of Florence,43.77306,11.25611,Cultural,Italy,Europe and North America,0
Medici Villas and Gardens in Tuscany,43.8577777778,11.3041666667,Cultural,Italy,Europe and North America,0
Venice and its Lagoon,45.43430556,12.33894444,Cultural,Italy,Europe and North America,0
Piazza del Duomo Pisa,43.72305556,10.39638889,Cultural,Italy,Europe and North America,0
Castel del Monte,41.08480556,16.27094444,Cultural,Italy,Europe and North America,0
18th-Century Royal Palace at Caserta with the Park the Aqueduct of Vanvitelli and the San Leucio Complex,41.07333,14.32639,Cultural,Italy,Europe and North America,0
Historic Centre of San Gimignano,43.46806,11.04167,Cultural,Italy,Europe and North America,0
The Sassi and the Park of the Rupestrian Churches of Matera,40.66638889,16.61027778,Cultural,Italy,Europe and North America,0
City of Vicenza and the Palladian Villas of the Veneto,45.54916667,11.54944444,Cultural,Italy,Europe and North America,0
Historic Centre of Siena,43.31861111,11.33166667,Cultural,Italy,Europe and North America,0
Historic Centre of Naples,40.85138889,14.26277778,Cultural,Italy,Europe and North America,0
Crespi d'Adda,45.59333,9.53833,Cultural,Italy,Europe and North America,0
Ferrara City of the Renaissance and its Po Delta,44.83777778,11.61944444,Cultural,Italy,Europe and North America,0
The Trulli of Alberobello,40.7825,17.23694,Cultural,Italy,Europe and North America,0
Early Christian Monuments of Ravenna,44.42041667,12.19625,Cultural,Italy,Europe and North America,0
Historic Centre of the City of Pienza,43.07694444,11.67861111,Cultural,Italy,Europe and North America,0
City of Verona,45.43861111,10.99388889,Cultural,Italy,Europe and North America,0
Residences of the Royal House of Savoy,45.07253,7.68572,Cultural,Italy,Europe and North America,0
Botanical Garden (Orto Botanico) Padua,45.39911111,11.88066667,Cultural,Italy,Europe and North America,0
Archaeological Area and the Patriarchal Basilica of Aquileia,45.76833333,13.3675,Cultural,Italy,Europe and North America,0
Portovenere Cinque Terre and the Islands (Palmaria Tino and Tinetto),44.10694,9.72917,Cultural,Italy,Europe and North America,0
Cathedral Torre Civica and Piazza Grande Modena,44.64624,10.92568,Cultural,Italy,Europe and North America,0
Historic Centre of Urbino,43.725,12.63333,Cultural,Italy,Europe and North America,0
Archaeological Areas of Pompei Herculaneum and Torre Annunziata,40.75,14.48333333,Cultural,Italy,Europe and North America,0
Costiera Amalfitana,40.65,14.6,Cultural,Italy,Europe and North America,0
Archaeological Area of Agrigento,37.28972222,13.59333333,Cultural,Italy,Europe and North America,0
Villa Romana del Casale,37.36611,14.33417,Cultural,Italy,Europe and North America,0
Su Nuraxi di Barumini,39.70583333,8.991388889,Cultural,Italy,Europe and North America,0
Cilento and Vallo di Diano National Park with the Archeological Sites of Paestum and Velia and the Certosa di Padula,40.28333333,15.26666667,Cultural,Italy,Europe and North America,0
Villa Adriana (Tivoli),41.94416667,12.77197222,Cultural,Italy,Europe and North America,0
Assisi the Basilica of San Francesco and Other Franciscan Sites,43.06616667,12.62244444,Cultural,Italy,Europe and North America,0
Late Baroque Towns of the Val di Noto (South-Eastern Sicily),36.89319444,15.06891667,Cultural,Italy,Europe and North America,0
Villa d'Este Tivoli,41.96391667,12.79625,Cultural,Italy,Europe and North America,0
Val d'Orcia,43.06666667,11.55,Cultural,Italy,Europe and North America,0
Sacri Monti of Piedmont and Lombardy,45.97455556,9.169555556,Cultural,Italy,Europe and North America,0
Etruscan Necropolises of Cerveteri and Tarquinia,42.00683333,12.10188889,Cultural,Italy,Europe and North America,0
Syracuse and the Rocky Necropolis of Pantalica,37.05944,15.29306,Cultural,Italy,Europe and North America,0
Genoa: Le Strade Nuove and the system of the Palazzi dei Rolli,44.4122222222,8.9311111111,Cultural,Italy,Europe and North America,0
Mantua and Sabbioneta,45.1594444444,10.7944444444,Cultural,Italy,Europe and North America,0
Longobards in Italy. Places of the Power (568-774 A.D.),46.0941666667,13.4330555556,Cultural,Italy,Europe and North America,0
Vineyard Landscape of Piedmont: Langhe-Roero and Monferrato,44.6086111111,7.9636111111,Cultural,Italy,Europe and North America,0
Arab-Norman Palermo and the Cathedral Churches of Cefalú and Monreale,38.1108333333,13.3530555556,Cultural,Italy,Europe and North America,0
Buddhist Monuments in the Horyu-ji Area,34.61666667,135.7333333,Cultural,Japan,Asia and the Pacific,0
Himeji-jo,34.83333333,134.7,Cultural,Japan,Asia and the Pacific,0
Historic Monuments of Ancient Kyoto (Kyoto Uji and Otsu Cities),34.98055556,135.7694444,Cultural,Japan,Asia and the Pacific,0
Historic Villages of Shirakawa-go and Gokayama,36.4,136.8833333,Cultural,Japan,Asia and the Pacific,0
Hiroshima Peace Memorial (Genbaku Dome),34.38333333,132.45,Cultural,Japan,Asia and the Pacific,0
Itsukushima Shinto Shrine,34.29441667,132.3246389,Cultural,Japan,Asia and the Pacific,0
Historic Monuments of Ancient Nara,34.67555556,135.8394444,Cultural,Japan,Asia and the Pacific,0
Shrines and Temples of Nikko,36.7475,139.6105556,Cultural,Japan,Asia and the Pacific,0
Gusuku Sites and Related Properties of the Kingdom of Ryukyu,26.20861111,127.6827778,Cultural,Japan,Asia and the Pacific,0
Sacred Sites and Pilgrimage Routes in the Kii Mountain Range,33.83694444,135.7763889,Cultural,Japan,Asia and the Pacific,0
Iwami Ginzan Silver Mine and its Cultural Landscape,35.1127777777,132.435,Cultural,Japan,Asia and the Pacific,0
Hiraizumi – Temples Gardens and Archaeological Sites Representing the Buddhist Pure Land,39.0011111111,141.1077777778,Cultural,Japan,Asia and the Pacific,0
Fujisan sacred place and source of artistic inspiration,35.3608333333,138.7275,Cultural,Japan,Asia and the Pacific,0
Tomioka Silk Mill and Related Sites,36.2552777778,138.8877777778,Cultural,Japan,Asia and the Pacific,0
Sites of Japan’s Meiji Industrial Revolution: Iron and Steel Shipbuilding and Coal Mining,34.4305555556,131.4122222222,Cultural,Japan,Asia and the Pacific,0
Old City of Jerusalem and its Walls,31.78333333,35.21666667,Cultural,Jerusalem (Site proposed by Jordan),Arab States,1
Petra,30.33056,35.44333,Cultural,Jordan,Arab States,0
Quseir Amra,31.80194,36.58583,Cultural,Jordan,Arab States,0
Um er-Rasas (Kastrom Mefa'a),31.50167,35.92056,Cultural,Jordan,Arab States,0
Baptism Site “Bethany Beyond the Jordan” (Al-Maghtas),31.8372222222,35.5527777778,Cultural,Jordan,Arab States,0
Mausoleum of Khoja Ahmed Yasawi,43.29305556,68.27444444,Cultural,Kazakhstan,Asia and the Pacific,0
Petroglyphs within the Archaeological Landscape of Tamgaly,43.80333333,75.535,Cultural,Kazakhstan,Asia and the Pacific,0
Lamu Old Town,-2.284444444,40.8525,Cultural,Kenya,Africa,0
Sacred Mijikenda Kaya Forests,-3.9319444444,39.5961111111,Cultural,Kenya,Africa,0
Fort Jesus Mombasa,-4.0627777778,39.6794444444,Cultural,Kenya,Africa,0
Sulaiman-Too Sacred Mountain,40.5311111111,72.7827777778,Cultural,Kyrgyzstan,Asia and the Pacific,0
Town of Luang Prabang,19.88889,102.13333,Cultural,Lao People's Democratic Republic,Asia and the Pacific,0
Vat Phou and Associated Ancient Settlements within the Champasak Cultural Landscape,14.8483333333,105.8222222222,Cultural,Lao People's Democratic Republic,Asia and the Pacific,0
Historic Centre of Riga,56.95417,24.11667,Cultural,Latvia,Europe and North America,0
Anjar,33.72583,35.92972,Cultural,Lebanon,Arab States,0
Baalbek,34.00707,36.20494,Cultural,Lebanon,Arab States,0
Byblos,34.11917,35.6475,Cultural,Lebanon,Arab States,0
Tyre,33.27194,35.19444,Cultural,Lebanon,Arab States,0
Ouadi Qadisha (the Holy Valley) and the Forest of the Cedars of God (Horsh Arz el-Rab),34.24333,36.04889,Cultural,Lebanon,Arab States,0
Archaeological Site of Leptis Magna,32.63833,14.29306,Cultural,Libya,Arab States,1
Archaeological Site of Sabratha,32.80528,12.485,Cultural,Libya,Arab States,1
Archaeological Site of Cyrene,32.825,21.85833,Cultural,Libya,Arab States,1
Rock-Art Sites of Tadrart Acacus,24.83333,10.33333,Cultural,Libya,Arab States,1
Old Town of Ghadamès,30.13333333,9.5,Cultural,Libya,Arab States,1
Vilnius Historic Centre,54.68667,25.29306,Cultural,Lithuania,Europe and North America,0
Kernavė  Archaeological Site (Cultural Reserve of Kernavė),54.88777778,24.83055556,Cultural,Lithuania,Europe and North America,0
City of Luxembourg: its Old Quarters and Fortifications,49.61,6.13333,Cultural,Luxembourg,Europe and North America,0
Royal Hill of Ambohimanga,-18.75917,47.56278,Cultural,Madagascar,Africa,0
Chongoni Rock-Art Area,-14.2933333333,34.2791666666,Cultural,Malawi,Africa,0
Melaka and George Town Historic Cities of the Straits of Malacca,5.4213888889,100.3458333333,Cultural,Malaysia,Asia and the Pacific,0
Archaeological Heritage of the Lenggong Valley,5.0679083333,100.9723277778,Cultural,Malaysia,Asia and the Pacific,0
Old Towns of Djenné,13.90639,-4.555,Cultural,Mali,Africa,1
Timbuktu,16.77333333,-2.999444444,Cultural,Mali,Africa,1
Tomb of Askia,16.2898,-0.04456,Cultural,Mali,Africa,1
Ħal Saflieni Hypogeum,35.87134,14.50739,Cultural,Malta,Europe and North America,0
City of Valletta,35.90056,14.51444,Cultural,Malta,Europe and North America,0
Megalithic Temples of Malta,36.04908,14.26947,Cultural,Malta,Europe and North America,0
Bikini Atoll Nuclear Test Site,11.6,165.3805555556,Cultural,Marshall Islands,Asia and the Pacific,0
Ancient Ksour of Ouadane Chinguetti Tichitt and Oualata,20.92889,-11.62361,Cultural,Mauritania,Arab States,0
Aapravasi Ghat,-20.1586388889,57.5031666666,Cultural,Mauritius,Africa,0
Le Morne Cultural Landscape,-20.4519444444,57.3283333333,Cultural,Mauritius,Africa,0
Pre-Hispanic City and National Park of Palenque,17.48333,-92.05,Cultural,Mexico,Latin America and the Caribbean,0
Historic Centre of Mexico City and Xochimilco,19.41833,-99.13278,Cultural,Mexico,Latin America and the Caribbean,0
Pre-Hispanic City of Teotihuacan,19.69167,-98.84167,Cultural,Mexico,Latin America and the Caribbean,0
Historic Centre of Oaxaca and Archaeological Site of Monte Albán,17.06194,-96.72167,Cultural,Mexico,Latin America and the Caribbean,0
Historic Centre of Puebla,19.04722,-98.20833,Cultural,Mexico,Latin America and the Caribbean,0
Historic Town of Guanajuato and Adjacent Mines,21.01694,-101.25556,Cultural,Mexico,Latin America and the Caribbean,0
Pre-Hispanic City of Chichen-Itza,20.66667,-88.6,Cultural,Mexico,Latin America and the Caribbean,0
Archaeological Zone of Paquimé Casas Grandes,30.37583,-107.95556,Cultural,Mexico,Latin America and the Caribbean,0
Historic Centre of Morelia,19.70444,-101.19167,Cultural,Mexico,Latin America and the Caribbean,0
El Tajin Pre-Hispanic City,20.47639,-97.3775,Cultural,Mexico,Latin America and the Caribbean,0
Historic Centre of Zacatecas,22.76667,-102.55556,Cultural,Mexico,Latin America and the Caribbean,0
Earliest 16th-Century Monasteries on the Slopes of Popocatepetl,18.93472,-98.89778,Cultural,Mexico,Latin America and the Caribbean,0
Rock Paintings of the Sierra de San Francisco,27.65556,-112.91611,Cultural,Mexico,Latin America and the Caribbean,0
Pre-Hispanic Town of Uxmal,20.36166667,-89.77027778,Cultural,Mexico,Latin America and the Caribbean,0
Historic Monuments Zone of Querétaro,20.58333333,-100.3666667,Cultural,Mexico,Latin America and the Caribbean,0
Hospicio Cabañas Guadalajara,20.67388889,-103.3397222,Cultural,Mexico,Latin America and the Caribbean,0
Historic Monuments Zone of Tlacotalpan,18.60833333,-95.65833333,Cultural,Mexico,Latin America and the Caribbean,0
Historic Fortified Town of Campeche,19.84639,-90.53722,Cultural,Mexico,Latin America and the Caribbean,0
Archaeological Monuments Zone of Xochicalco,18.81028,-99.275,Cultural,Mexico,Latin America and the Caribbean,0
Franciscan Missions in the Sierra Gorda of Querétaro,21.20438889,-99.46411111,Cultural,Mexico,Latin America and the Caribbean,0
Luis Barragán House and Studio,19.41833333,-99.19833333,Cultural,Mexico,Latin America and the Caribbean,0
Agave Landscape and Ancient Industrial Facilities of Tequila,20.8630555555,-103.7786111111,Cultural,Mexico,Latin America and the Caribbean,0
Central University City Campus of the Universidad Nacional Autónoma de México (UNAM),19.3322222222,-99.1880555555,Cultural,Mexico,Latin America and the Caribbean,0
Protective town of San Miguel and the Sanctuary of Jesús Nazareno de Atotonilco,20.9144444444,-100.7463888889,Cultural,Mexico,Latin America and the Caribbean,0
Camino Real de Tierra Adentro,22.6080555556,-102.3791666667,Cultural,Mexico,Latin America and the Caribbean,0
Prehistoric Caves of Yagul and Mitla in the Central Valley of Oaxaca,16.9508333333,-96.4211111111,Cultural,Mexico,Latin America and the Caribbean,0
Aqueduct of Padre Tembleque Hydraulic System,19.8352777778,-98.6625666667,Cultural,Mexico,Latin America and the Caribbean,0
Nan Madol: Ceremonial Centre of Eastern Micronesia,6.8397222222,158.3308333333,Cultural,Micronesia (Federated States of),Asia and the Pacific,1
Orkhon Valley Cultural Landscape,47.55666667,102.8313889,Cultural,Mongolia,Asia and the Pacific,0
Petroglyphic Complexes of the Mongolian Altai,49.3338888889,88.3952777778,Cultural,Mongolia,Asia and the Pacific,0
Great Burkhan Khaldun Mountain and its surrounding sacred landscape,48.7619777778,109.0093277778,Cultural,Mongolia,Asia and the Pacific,0
Natural and Culturo-Historical Region of Kotor,42.48333,18.7,Cultural,Montenegro,Europe and North America,0
Medina of Fez,34.06111,-4.97778,Cultural,Morocco,Arab States,0
Medina of Marrakesh,31.63139,-7.98667,Cultural,Morocco,Arab States,0
Ksar of Ait-Ben-Haddou,31.04722,-7.12889,Cultural,Morocco,Arab States,0
Medina of Essaouira (formerly Mogador),31.51667,-9.76944,Cultural,Morocco,Arab States,0
Historic City of Meknes,33.88333,-5.55833,Cultural,Morocco,Arab States,0
Archaeological Site of Volubilis,34.07389,-5.55694,Cultural,Morocco,Arab States,0
Medina of Tétouan (formerly known as Titawin),35.57083,-5.36667,Cultural,Morocco,Arab States,0
Portuguese City of Mazagan (El Jadida),33.25667,-8.50194,Cultural,Morocco,Arab States,0
Rabat Modern Capital and Historic City: a Shared Heritage,34.0241666667,-6.8227777778,Cultural,Morocco,Arab States,0
Island of Mozambique,-15.03417,40.73583,Cultural,Mozambique,Africa,0
Pyu Ancient Cities,22.47,95.8186111111,Cultural,Myanmar,Asia and the Pacific,0
Twyfelfontein or Uiaes,-20.5955833333,14.3725833333,Cultural,Namibia,Africa,0
Kathmandu Valley ,27.70395,85.30858,Cultural,Nepal,Asia and the Pacific,0
Lumbini the Birthplace of the Lord Buddha,27.46889,83.27611,Cultural,Nepal,Asia and the Pacific,0
Schokland and Surroundings,52.63861111,5.771666667,Cultural,Netherlands,Europe and North America,0
Defence Line of Amsterdam,52.37444444,4.893055556,Cultural,Netherlands,Europe and North America,0
Mill Network at Kinderdijk-Elshout,51.8825,4.649444444,Cultural,Netherlands,Europe and North America,0
Historic Area of Willemstad Inner City and Harbour Curaçao,12.10194,-68.90222,Cultural,Netherlands,Europe and North America,0
Ir.D.F. Woudagemaal (D.F. Wouda Steam Pumping Station),52.84583,5.67889,Cultural,Netherlands,Europe and North America,0
Droogmakerij de Beemster (Beemster Polder),52.54888889,4.911111111,Cultural,Netherlands,Europe and North America,0
Rietveld Schröderhuis (Rietveld Schröder House),52.08527778,5.147222222,Cultural,Netherlands,Europe and North America,0
Seventeenth-Century Canal Ring Area of Amsterdam inside the Singelgracht,52.365,4.8877777778,Cultural,Netherlands,Europe and North America,0
Van Nellefabriek,51.9233333333,4.4183333333,Cultural,Netherlands,Europe and North America,0
Ruins of León Viejo,12.39722,-86.61028,Cultural,Nicaragua,Latin America and the Caribbean,0
León Cathedral,12.435,-86.8780555556,Cultural,Nicaragua,Latin America and the Caribbean,0
Historic Centre of Agadez,16.9736111111,7.9913888889,Cultural,Niger,Africa,0
Sukur Cultural Landscape,10.74056,13.57194,Cultural,Nigeria,Africa,0
Osun-Osogbo Sacred Grove,7.75556,4.55222,Cultural,Nigeria,Africa,0
Røros Mining Town and the Circumference,62.5738888889,11.3855555556,Cultural,Norway,Europe and North America,0
Urnes Stave Church,61.3,7.33333,Cultural,Norway,Europe and North America,0
Bryggen,60.39722,5.32306,Cultural,Norway,Europe and North America,0
Rock Art of Alta,69.95,23.18333,Cultural,Norway,Europe and North America,0
Vegaøyan -- The Vega Archipelago,65.61667,11.75,Cultural,Norway,Europe and North America,0
Rjukan-Notodden Industrial Heritage Site,59.8786111111,8.5936111111,Cultural,Norway,Europe and North America,0
Bahla Fort,22.96417,57.30111,Cultural,Oman,Arab States,0
Archaeological Sites of Bat Al-Khutm and Al-Ayn,23.26986,56.745,Cultural,Oman,Arab States,0
Land of Frankincense,18.25333,53.64759,Cultural,Oman,Arab States,0
Aflaji Irrigation Systems of Oman,22.9988888889,57.5360555555,Cultural,Oman,Arab States,0
Archaeological Ruins at Moenjodaro,27.32916667,68.13888889,Cultural,Pakistan,Asia and the Pacific,0
Taxila,33.77916667,72.8875,Cultural,Pakistan,Asia and the Pacific,0
Buddhist Ruins of Takht-i-Bahi and Neighbouring City Remains at Sahr-i-Bahlol,34.32083333,71.94583333,Cultural,Pakistan,Asia and the Pacific,0
Historical Monuments at Makli Thatta,24.76666667,67.9,Cultural,Pakistan,Asia and the Pacific,0
Fort and Shalamar Gardens in Lahore,31.59027778,74.30972222,Cultural,Pakistan,Asia and the Pacific,0
Rohtas Fort,32.9625,73.58888889,Cultural,Pakistan,Asia and the Pacific,0
Birthplace of Jesus: Church of the Nativity and the Pilgrimage Route Bethlehem,31.7043527778,35.2075,Cultural,Palestine,Arab States,1
Palestine: Land of Olives and Vines – Cultural Landscape of Southern Jerusalem Battir,31.7197222222,35.1305555556,Cultural,Palestine,Arab States,1
Fortifications on the Caribbean Side of Panama: Portobelo-San Lorenzo,9.553888889,-79.65583333,Cultural,Panama,Latin America and the Caribbean,1
Archaeological Site of Panamá Viejo and Historic District of Panamá,8.951111111,-79.54055556,Cultural,Panama,Latin America and the Caribbean,0
Kuk Early Agricultural Site,-5.7837111111,144.3317222222,Cultural,Papua New Guinea,Asia and the Pacific,0
Jesuit Missions of La Santísima Trinidad de Paraná and Jesús de Tavarangue,-27.13333,-55.7,Cultural,Paraguay,Latin America and the Caribbean,0
City of Cuzco,-13.52222,-71.98333,Cultural,Peru,Latin America and the Caribbean,0
Chavin (Archaeological Site),-9.5927725444,-77.1784535027,Cultural,Peru,Latin America and the Caribbean,0
Chan Chan Archaeological Zone,-8.1,-79.08333,Cultural,Peru,Latin America and the Caribbean,1
Historic Centre of Lima,-12.05139,-77.04306,Cultural,Peru,Latin America and the Caribbean,0
Lines and Geoglyphs of Nasca and Palpa,-14.72583,-75.14861,Cultural,Peru,Latin America and the Caribbean,0
Historical Centre of the City of Arequipa,-16.4,-71.53333333,Cultural,Peru,Latin America and the Caribbean,0
Sacred City of Caral-Supe,-10.8916666667,-77.5213888889,Cultural,Peru,Latin America and the Caribbean,0
Historic City of Vigan,17.575,120.3875,Cultural,Philippines,Asia and the Pacific,0
Baroque Churches of the Philippines,14.59,120.97,Cultural,Philippines,Asia and the Pacific,0
Rice Terraces of the Philippine Cordilleras,16.93389,121.13667,Cultural,Philippines,Asia and the Pacific,0
Historic Centre of Kraków,50.0613888889,19.9372222222,Cultural,Poland,Europe and North America,0
Historic Centre of Warsaw,52.26639,21.01167,Cultural,Poland,Europe and North America,0
Auschwitz Birkenau German Nazi Concentration and Extermination Camp (1940-1945),50.0388888889,19.175,Cultural,Poland,Europe and North America,0
Wieliczka and Bochnia Royal Salt Mines,49.9791666667,20.0638888889,Cultural,Poland,Europe and North America,0
Old City of Zamość,50.71667,23.26667,Cultural,Poland,Europe and North America,0
Medieval Town of Toruń,53.01,18.61944,Cultural,Poland,Europe and North America,0
Castle of the Teutonic Order in Malbork,54.04166667,19.03333333,Cultural,Poland,Europe and North America,0
Kalwaria Zebrzydowska: the Mannerist Architectural and Park Landscape Complex and Pilgrimage Park,49.86666667,19.66666667,Cultural,Poland,Europe and North America,0
Wooden Churches of Southern Małopolska,49.75,21.23333333,Cultural,Poland,Europe and North America,0
Churches of Peace in Jawor and Świdnica,51.05427778,16.19594444,Cultural,Poland,Europe and North America,0
Centennial Hall in Wrocław,51.1069472222,17.0770138888,Cultural,Poland,Europe and North America,0
Central Zone of the Town of Angra do Heroismo in the Azores,38.655,-27.22,Cultural,Portugal,Europe and North America,0
Monastery of the Hieronymites and Tower of Belém in Lisbon,38.69194,-9.21583,Cultural,Portugal,Europe and North America,0
Monastery of Batalha,39.65778,-8.82694,Cultural,Portugal,Europe and North America,0
Convent of Christ in Tomar,39.60472,-8.4175,Cultural,Portugal,Europe and North America,0
Historic Centre of Évora,38.57306,-7.90778,Cultural,Portugal,Europe and North America,0
Monastery of Alcobaça,39.55,-8.97667,Cultural,Portugal,Europe and North America,0
Cultural Landscape of Sintra,38.78333,-9.41667,Cultural,Portugal,Europe and North America,0
Historic Centre of Oporto Luiz I Bridge and Monastery of Serra do Pilar ,41.14166667,-8.616666667,Cultural,Portugal,Europe and North America,0
Historic Centre of Guimarães,41.443731,-8.292803,Cultural,Portugal,Europe and North America,0
Alto Douro Wine Region,41.10166667,-7.798888889,Cultural,Portugal,Europe and North America,0
Landscape of the Pico Island Vineyard Culture,38.51344444,-28.54116667,Cultural,Portugal,Europe and North America,0
Garrison Border Town of Elvas and its Fortifications,38.8806194444,-7.1633222222,Cultural,Portugal,Europe and North America,0
University of Coimbra – Alta and Sofia,40.2078111111,-8.425775,Cultural,Portugal,Europe and North America,0
Al Zubarah Archaeological Site,25.9780555556,51.0297222222,Cultural,Qatar,Arab States,0
Seokguram Grotto and Bulguksa Temple,35.78333333,129.35,Cultural,Republic of Korea,Asia and the Pacific,0
Haeinsa Temple Janggyeong Panjeon the Depositories for the Tripitaka Koreana Woodblocks,35.8,128.1,Cultural,Republic of Korea,Asia and the Pacific,0
Jongmyo Shrine,37.55,126.98333,Cultural,Republic of Korea,Asia and the Pacific,0
Changdeokgung Palace Complex,37.55,126.9833333,Cultural,Republic of Korea,Asia and the Pacific,0
Hwaseong Fortress,37.27222,127.00833,Cultural,Republic of Korea,Asia and the Pacific,0
Gyeongju Historic Areas,35.78889,129.22667,Cultural,Republic of Korea,Asia and the Pacific,0
Gochang Hwasun and Ganghwa Dolmen Sites,34.96667,126.92917,Cultural,Republic of Korea,Asia and the Pacific,0
Royal Tombs of the Joseon Dynasty,37.1972222222,128.4527777778,Cultural,Republic of Korea,Asia and the Pacific,0
Historic Villages of Korea: Hahoe and Yangdong,36.5391666667,128.5166666667,Cultural,Republic of Korea,Asia and the Pacific,0
Namhansanseong,37.4788888889,127.1811111111,Cultural,Republic of Korea,Asia and the Pacific,0
Baekje Historic Areas,36.4619444444,127.1272222222,Cultural,Republic of Korea,Asia and the Pacific,0
Villages with Fortified Churches in Transylvania,46.13583333,24.77305556,Cultural,Romania,Europe and North America,0
Monastery of Horezu,45.18333333,24.01666667,Cultural,Romania,Europe and North America,0
Churches of Moldavia,47.7783333333,25.7127777778,Cultural,Romania,Europe and North America,0
Historic Centre of Sighişoara,46.21777778,24.79222222,Cultural,Romania,Europe and North America,0
Wooden Churches of Maramureş,47.82083333,24.05583333,Cultural,Romania,Europe and North America,0
Dacian Fortresses of the Orastie Mountains,45.62305556,23.31194444,Cultural,Romania,Europe and North America,0
Historic Centre of Saint Petersburg and Related Groups of Monuments,59.95,30.31833,Cultural,Russian Federation,Europe and North America,0
Kizhi Pogost,62.07138889,35.2275,Cultural,Russian Federation,Europe and North America,0
Kremlin and Red Square Moscow,55.74583,37.62972,Cultural,Russian Federation,Europe and North America,0
Historic Monuments of Novgorod and Surroundings,58.53333,31.28333,Cultural,Russian Federation,Europe and North America,0
Cultural and Historic Ensemble of the Solovetsky Islands,65.08333333,35.66666667,Cultural,Russian Federation,Europe and North America,0
White Monuments of Vladimir and Suzdal,56.15,40.41666667,Cultural,Russian Federation,Europe and North America,0
Church of the Ascension Kolomenskoye,55.65556,37.67389,Cultural,Russian Federation,Europe and North America,0
Architectural Ensemble of the Trinity Sergius Lavra in Sergiev Posad,56.31035,38.1312,Cultural,Russian Federation,Europe and North America,0
Historic and Architectural Complex of the Kazan Kremlin,55.79111111,49.095,Cultural,Russian Federation,Europe and North America,0
Bolgar Historical and Archaeological Complex,54.9788888889,49.0563888889,Cultural,Russian Federation,Europe and North America,0
Ensemble of the Ferapontov Monastery,59.95,38.56666667,Cultural,Russian Federation,Europe and North America,0
Citadel Ancient City and Fortress Buildings of Derbent,42.05297222,48.29719444,Cultural,Russian Federation,Europe and North America,0
Ensemble of the Novodevichy Convent,55.72611111,37.55508333,Cultural,Russian Federation,Europe and North America,0
Historical Centre of the City of Yaroslavl,57.65278,39.87611,Cultural,Russian Federation,Europe and North America,0
Brimstone Hill Fortress National Park,17.34694,-62.83722,Cultural,Saint Kitts and Nevis,Latin America and the Caribbean,0
San Marino Historic Centre and Mount Titano,43.9327777778,12.4519444444,Cultural,San Marino,Europe and North America,0
Al-Hijr Archaeological Site (Madâin Sâlih),26.7836111111,37.955,Cultural,Saudi Arabia,Arab States,0
At-Turaif District in ad-Dir'iyah,24.7341333333,46.5724666667,Cultural,Saudi Arabia,Arab States,0
Historic Jeddah the Gate to Makkah,21.4838888889,39.1875,Cultural,Saudi Arabia,Arab States,0
Rock Art in the Hail Region of Saudi Arabia,28.0105555556,40.9130555556,Cultural,Saudi Arabia,Arab States,0
Island of Gorée,14.66722,-17.40083,Cultural,Senegal,Africa,0
Island of Saint-Louis,16.02778,-16.50444,Cultural,Senegal,Africa,0
Saloum Delta,13.8352777778,-16.4986111111,Cultural,Senegal,Africa,0
Bassari Country: Bassari Fula and Bedik Cultural Landscapes,12.5933333333,-12.8458333333,Cultural,Senegal,Africa,0
Stari Ras and Sopoćani,43.11889,20.42278,Cultural,Serbia,Europe and North America,0
Studenica Monastery,43.48611,20.53667,Cultural,Serbia,Europe and North America,0
Medieval Monuments in Kosovo,42.6611111111,20.2655555555,Cultural,Serbia,Europe and North America,1
Gamzigrad-Romuliana Palace of Galerius,43.8993055556,22.1861111111,Cultural,Serbia,Europe and North America,0
Singapore Botanic Gardens,1.3152777778,103.8161111111,Cultural,Singapore,Asia and the Pacific,0
Historic Town of Banská Štiavnica and the Technical Monuments in its Vicinity,48.46111,18.9,Cultural,Slovakia,Europe and North America,0
Levoča Spišský Hrad and the Associated Cultural Monuments,48.9994444444,20.7675,Cultural,Slovakia,Europe and North America,0
Vlkolínec,49.0391666667,19.2783333333,Cultural,Slovakia,Europe and North America,0
Bardejov Town Conservation Reserve,49.29333,21.27917,Cultural,Slovakia,Europe and North America,0
Wooden Churches of the Slovak part of the Carpathian Mountain Area,49.3361111111,19.5583333333,Cultural,Slovakia,Europe and North America,0
Fossil Hominid Sites of South Africa,-24.15861,29.17694,Cultural,South Africa,Africa,0
Robben Island,-33.8,18.36666667,Cultural,South Africa,Africa,0
Mapungubwe Cultural Landscape,-22.1925,29.23889,Cultural,South Africa,Africa,0
Richtersveld Cultural and Botanical Landscape,-28.6,17.2038888888,Cultural,South Africa,Africa,0
Cave of Altamira and Paleolithic Cave Art of Northern Spain,43.38252778,-4.116166667,Cultural,Spain,Europe and North America,0
Old Town of Segovia and its Aqueduct,40.94847222,-4.11675,Cultural,Spain,Europe and North America,0
Monuments of Oviedo and the Kingdom of the Asturias,43.36262,-5.84303,Cultural,Spain,Europe and North America,0
Historic Centre of Cordoba,37.87919444,-4.779722222,Cultural,Spain,Europe and North America,0
Alhambra Generalife and Albayzín Granada,37.17667,-3.59444,Cultural,Spain,Europe and North America,0
Burgos Cathedral,42.3405277778,-3.7048138889,Cultural,Spain,Europe and North America,0
Monastery and Site of the Escurial Madrid,40.58175,-4.126416667,Cultural,Spain,Europe and North America,0
Works of Antoni Gaudí ,41.41338,2.152972,Cultural,Spain,Europe and North America,0
Santiago de Compostela (Old Town),42.88076,-8.54468,Cultural,Spain,Europe and North America,0
Old Town of Ávila with its Extra-Muros Churches,40.65645,-4.70012,Cultural,Spain,Europe and North America,0
Mudejar Architecture of Aragon,40.34389,-1.10722,Cultural,Spain,Europe and North America,0
Historic City of Toledo,39.86688889,-4.029416667,Cultural,Spain,Europe and North America,0
Old City of Salamanca,40.96525,-5.6645,Cultural,Spain,Europe and North America,0
Cathedral Alcázar and Archivo de Indias in Seville,37.38384,-5.99155,Cultural,Spain,Europe and North America,0
Old Town of Cáceres,39.47444,-6.37,Cultural,Spain,Europe and North America,0
Poblet Monastery,41.38083,1.0825,Cultural,Spain,Europe and North America,0
Renaissance Monumental Ensembles of Úbeda and Baeza,38.01131,-3.37122,Cultural,Spain,Europe and North America,0
Archaeological Ensemble of Mérida,38.91611,-6.33778,Cultural,Spain,Europe and North America,0
Royal Monastery of Santa María de Guadalupe,39.45285,-5.3275,Cultural,Spain,Europe and North America,0
Routes of Santiago de Compostela: Camino Francés and Routes of Northern Spain ,43.335,-6.4147222222,Cultural,Spain,Europe and North America,0
Historic Walled Town of Cuenca,40.07662,-2.13174,Cultural,Spain,Europe and North America,0
La Lonja de la Seda de Valencia,39.47441667,-0.378444444,Cultural,Spain,Europe and North America,0
Las Médulas,42.46939,-6.77075,Cultural,Spain,Europe and North America,0
Palau de la Música Catalana and Hospital de Sant Pau Barcelona,41.38778,2.175,Cultural,Spain,Europe and North America,0
San Millán Yuso and Suso Monasteries,42.32586,-2.86496,Cultural,Spain,Europe and North America,0
Rock Art of the Mediterranean Basin on the Iberian Peninsula,39.78995,-1.03331,Cultural,Spain,Europe and North America,0
Archaeological Ensemble of Tárraco,41.11472222,1.259305556,Cultural,Spain,Europe and North America,0
University and Historic Precinct of Alcalá de Henares,40.48138889,-3.368055556,Cultural,Spain,Europe and North America,0
San Cristóbal de La Laguna,28.47788889,-16.31177778,Cultural,Spain,Europe and North America,0
Palmeral of Elche,38.26666667,-0.716666667,Cultural,Spain,Europe and North America,0
Roman Walls of Lugo,43.01111,-7.55333,Cultural,Spain,Europe and North America,0
Catalan Romanesque Churches of the Vall de Boí,42.50472222,0.803611111,Cultural,Spain,Europe and North America,0
Archaeological Site of Atapuerca,42.37138889,-3.547222222,Cultural,Spain,Europe and North America,0
Aranjuez Cultural Landscape,40.03645,-3.60934,Cultural,Spain,Europe and North America,0
Vizcaya Bridge,43.323175,-3.0168333333,Cultural,Spain,Europe and North America,0
Tower of Hercules,43.3858333333,-8.4063888889,Cultural,Spain,Europe and North America,0
Cultural Landscape of the Serra de Tramuntana,39.7308333333,2.6947222222,Cultural,Spain,Europe and North America,0
Antequera Dolmens Site,37.025,-4.5444444444,Cultural,Spain,Europe and North America,0
Sacred City of Anuradhapura,8.333333333,80.38333333,Cultural,Sri Lanka,Asia and the Pacific,0
Ancient City of Polonnaruwa,7.915833333,81.00055556,Cultural,Sri Lanka,Asia and the Pacific,0
Ancient City of Sigiriya,7.95,80.75,Cultural,Sri Lanka,Asia and the Pacific,0
Sacred City of Kandy,7.293611111,80.64027778,Cultural,Sri Lanka,Asia and the Pacific,0
Old Town of Galle and its Fortifications,6.021388889,80.21861111,Cultural,Sri Lanka,Asia and the Pacific,0
Golden Temple of Dambulla,7.856666667,80.64916667,Cultural,Sri Lanka,Asia and the Pacific,0
Gebel Barkal and the Sites of the Napatan Region,18.53333333,31.81666667,Cultural,Sudan,Arab States,0
Archaeological Sites of the Island of Meroe,16.9333333333,33.7166666667,Cultural,Sudan,Arab States,0
Historic Inner City of Paramaribo,5.82611,-55.15,Cultural,Suriname,Latin America and the Caribbean,0
Birka and Hovgården,59.33514,17.54264,Cultural,Sweden,Europe and North America,0
Engelsberg Ironworks,59.96667,16.00833,Cultural,Sweden,Europe and North America,0
Rock Carvings in Tanum,58.70111,11.34111,Cultural,Sweden,Europe and North America,0
Skogskyrkogården,59.27556,18.09944,Cultural,Sweden,Europe and North America,0
Royal Domain of Drottningholm,59.32306,17.88333,Cultural,Sweden,Europe and North America,0
Hanseatic Town of Visby,57.64167,18.29583,Cultural,Sweden,Europe and North America,0
Church Town of Gammelstad Luleå ,65.64611,22.02861,Cultural,Sweden,Europe and North America,0
Naval Port of Karlskrona,56.16667,15.58333,Cultural,Sweden,Europe and North America,0
Agricultural Landscape of Southern Öland,56.325,16.48333,Cultural,Sweden,Europe and North America,0
Mining Area of the Great Copper Mountain in Falun,60.60472,15.63083,Cultural,Sweden,Europe and North America,0
Grimeton Radio Station Varberg,57.1,12.38333333,Cultural,Sweden,Europe and North America,0
Decorated Farmhouses of Hälsingland,61.7072222222,16.1958333333,Cultural,Sweden,Europe and North America,0
Old City of Berne,46.94806,7.45028,Cultural,Switzerland,Europe and North America,0
Abbey of St Gall,47.42333,9.37778,Cultural,Switzerland,Europe and North America,0
Benedictine Convent of St John at Müstair,46.62945,10.44765,Cultural,Switzerland,Europe and North America,0
Three Castles Defensive Wall and Ramparts of the Market-Town of Bellinzona,46.19314,9.02242,Cultural,Switzerland,Europe and North America,0
Lavaux Vineyard Terraces,46.4919444444,6.7461111111,Cultural,Switzerland,Europe and North America,0
La Chaux-de-Fonds / Le Locle Watchmaking Town Planning,47.1038888889,6.8327777778,Cultural,Switzerland,Europe and North America,0
Ancient City of Damascus,33.51139,36.30639,Cultural,Syrian Arab Republic,Arab States,1
Ancient City of Aleppo,36.23333,37.16667,Cultural,Syrian Arab Republic,Arab States,1
Ancient City of Bosra,32.51806,36.48167,Cultural,Syrian Arab Republic,Arab States,1
Site of Palmyra,34.55417,38.26667,Cultural,Syrian Arab Republic,Arab States,1
Crac des Chevaliers and Qal’at Salah El-Din,34.7816666667,36.2630555555,Cultural,Syrian Arab Republic,Arab States,1
Ancient Villages of Northern Syria,36.3341666667,36.8441666667,Cultural,Syrian Arab Republic,Arab States,1
Proto-urban Site of Sarazm,39.5077777778,67.4602777778,Cultural,Tajikistan,Asia and the Pacific,0
Historic Town of Sukhothai and Associated Historic Towns,17.00722,99.78972,Cultural,Thailand,Asia and the Pacific,0
Ban Chiang Archaeological Site,17.54861,103.35833,Cultural,Thailand,Asia and the Pacific,0
Historic City of Ayutthaya,14.34778,100.56056,Cultural,Thailand,Asia and the Pacific,0
Koutammakou the Land of the Batammariba,10.06666667,1.133333333,Cultural,Togo,Africa,0
Medina of Tunis,36.81667,10.16667,Cultural,Tunisia,Arab States,0
Archaeological Site of Carthage,36.85278,10.32333,Cultural,Tunisia,Arab States,0
Amphitheatre of El Jem,35.29639,10.70694,Cultural,Tunisia,Arab States,0
Punic Town of Kerkuane and its Necropolis,36.94639,11.09917,Cultural,Tunisia,Arab States,0
Medina of Sousse,35.82778,10.63861,Cultural,Tunisia,Arab States,0
Kairouan,35.68167,10.10389,Cultural,Tunisia,Arab States,0
Dougga / Thugga,36.42361,9.22028,Cultural,Tunisia,Arab States,0
Historic Areas of Istanbul,41.00847,28.97993,Cultural,Turkey,Europe and North America,0
Great Mosque and Hospital of Divriği,39.371271,38.121826,Cultural,Turkey,Europe and North America,0
Hattusha: the Hittite Capital,40.01389,34.62056,Cultural,Turkey,Europe and North America,0
Nemrut Dağ,38.03661,38.76369,Cultural,Turkey,Europe and North America,0
Xanthos-Letoon,36.335,29.32028,Cultural,Turkey,Europe and North America,0
City of Safranbolu,41.26,32.68972,Cultural,Turkey,Europe and North America,0
Archaeological Site of Troy,39.95644,26.239,Cultural,Turkey,Europe and North America,0
Ephesus,37.9291666667,27.3594444444,Cultural,Turkey,Europe and North America,0
Selimiye Mosque and its Social Complex,41.6777777778,26.5594444444,Cultural,Turkey,Europe and North America,0
Neolithic Site of Çatalhöyük,37.6666666667,32.8280555556,Cultural,Turkey,Europe and North America,0
Bursa and Cumalıkızık: the Birth of the Ottoman Empire,40.1847305556,29.0623361111,Cultural,Turkey,Europe and North America,0
Pergamon and its Multi-Layered Cultural Landscape,39.1258333333,27.18,Cultural,Turkey,Europe and North America,0
Diyarbakır Fortress and Hevsel Gardens Cultural Landscape,37.9031,40.2393083333,Cultural,Turkey,Europe and North America,0
Archaeological Site of Ani,40.5,43.5666666667,Cultural,Turkey,Europe and North America,0
State Historical and Cultural Park “Ancient Merv”,37.70083,62.1775,Cultural,Turkmenistan,Asia and the Pacific,0
Kunya-Urgench,42.18318,59.08494,Cultural,Turkmenistan,Asia and the Pacific,0
Parthian Fortresses of Nisa,37.9997222222,58.1986111111,Cultural,Turkmenistan,Asia and the Pacific,0
Tombs of Buganda Kings at Kasubi,0.348611111,32.55138889,Cultural,Uganda,Africa,1
Kiev: Saint-Sophia Cathedral and Related Monastic Buildings Kiev-Pechersk Lavra,50.45258,30.51686,Cultural,Ukraine,Europe and North America,0
L'viv – the Ensemble of the Historic Centre,49.84163,24.03198,Cultural,Ukraine,Europe and North America,0
Residence of Bukovinian and Dalmatian Metropolitans,48.2966666667,25.9247222222,Cultural,Ukraine,Europe and North America,0
Ancient City of Tauric Chersonese and its Chora,44.6108333333,33.4913888889,Cultural,Ukraine,Europe and North America,0
Cultural Sites of Al Ain (Hafit Hili Bidaa Bint Saud and Oases Areas),24.0677777778,55.8063888889,Cultural,United Arab Emirates,Arab States,0
Durham Castle and Cathedral,54.77472222,-1.576111111,Cultural,United Kingdom of Great Britain and Northern Ireland,Europe and North America,0
Ironbridge Gorge,52.62638889,-2.472777778,Cultural,United Kingdom of Great Britain and Northern Ireland,Europe and North America,0
Studley Royal Park including the Ruins of Fountains Abbey,54.11611111,-1.573055556,Cultural,United Kingdom of Great Britain and Northern Ireland,Europe and North America,0
Stonehenge Avebury and Associated Sites,51.17888889,-1.825277778,Cultural,United Kingdom of Great Britain and Northern Ireland,Europe and North America,0
Castles and Town Walls of King Edward in Gwynedd,53.13972222,-4.276944444,Cultural,United Kingdom of Great Britain and Northern Ireland,Europe and North America,0
Blenheim Palace,51.84194444,-1.361388889,Cultural,United Kingdom of Great Britain and Northern Ireland,Europe and North America,0
Palace of Westminster and Westminster Abbey including Saint Margaret’s Church,51.49972222,-0.128611111,Cultural,United Kingdom of Great Britain and Northern Ireland,Europe and North America,0
City of Bath,51.38138889,-2.358611111,Cultural,United Kingdom of Great Britain and Northern Ireland,Europe and North America,0
New Lanark,55.66333333,-3.783055556,Cultural,United Kingdom of Great Britain and Northern Ireland,Europe and North America,0
Tower of London,51.50805556,-0.076111111,Cultural,United Kingdom of Great Britain and Northern Ireland,Europe and North America,0
Canterbury Cathedral St Augustine's Abbey and St Martin's Church,51.28,1.083333333,Cultural,United Kingdom of Great Britain and Northern Ireland,Europe and North America,0
Heart of Neolithic Orkney,58.99605556,-3.188666667,Cultural,United Kingdom of Great Britain and Northern Ireland,Europe and North America,0
Old and New Towns of Edinburgh,55.95,-3.216666667,Cultural,United Kingdom of Great Britain and Northern Ireland,Europe and North America,0
Maritime Greenwich,51.47777778,0,Cultural,United Kingdom of Great Britain and Northern Ireland,Europe and North America,0
Historic Town of St George and Related Fortifications Bermuda,32.37944444,-64.67777778,Cultural,United Kingdom of Great Britain and Northern Ireland,Europe and North America,0
Blaenavon Industrial Landscape,51.77638889,-3.088055556,Cultural,United Kingdom of Great Britain and Northern Ireland,Europe and North America,0
Saltaire,53.83916667,-1.788333333,Cultural,United Kingdom of Great Britain and Northern Ireland,Europe and North America,0
Derwent Valley Mills,53.02888889,-1.488055556,Cultural,United Kingdom of Great Britain and Northern Ireland,Europe and North America,0
Royal Botanic Gardens Kew,51.48194444,-0.294027778,Cultural,United Kingdom of Great Britain and Northern Ireland,Europe and North America,0
Liverpool – Maritime Mercantile City,53.40666667,-2.994444444,Cultural,United Kingdom of Great Britain and Northern Ireland,Europe and North America,1
Cornwall and West Devon Mining Landscape,50.1361111111,-5.3836111111,Cultural,United Kingdom of Great Britain and Northern Ireland,Europe and North America,0
Pontcysyllte Aqueduct and Canal,52.9702777778,-3.0877777778,Cultural,United Kingdom of Great Britain and Northern Ireland,Europe and North America,0
The Forth Bridge,56.0011111111,-3.3888888889,Cultural,United Kingdom of Great Britain and Northern Ireland,Europe and North America,0
Gorham's Cave Complex,36.1226694444,-5.3420611111,Cultural,United Kingdom of Great Britain and Northern Ireland,Europe and North America,0
Ruins of Kilwa Kisiwani and Ruins of Songo Mnara,-8.95778,39.52278,Cultural,United Republic of Tanzania,Africa,0
Stone Town of Zanzibar,-6.16306,39.18917,Cultural,United Republic of Tanzania,Africa,0
Kondoa Rock-Art Sites,-4.7244444444,35.8338888888,Cultural,United Republic of Tanzania,Africa,0
Mesa Verde National Park,37.26166667,-108.4855556,Cultural,United States of America,Europe and North America,0
Independence Hall,39.94861111,-75.15,Cultural,United States of America,Europe and North America,0
Cahokia Mounds State Historic Site,38.65861111,-90.06138889,Cultural,United States of America,Europe and North America,0
La Fortaleza and San Juan National Historic Site in Puerto Rico,18.46666667,-66.125,Cultural,United States of America,Europe and North America,0
Statue of Liberty,40.68944444,-74.04472222,Cultural,United States of America,Europe and North America,0
Chaco Culture,36.06377778,-107.9708333,Cultural,United States of America,Europe and North America,0
Monticello and the University of Virginia in Charlottesville,38.03277778,-78.50388889,Cultural,United States of America,Europe and North America,0
Taos Pueblo,36.43889,-105.54167,Cultural,United States of America,Europe and North America,0
Monumental Earthworks of Poverty Point,32.6369444444,-91.4063888889,Cultural,United States of America,Europe and North America,0
San Antonio Missions,29.3280555556,-98.46,Cultural,United States of America,Europe and North America,0
Historic Quarter of the City of Colonia del Sacramento,-34.46777778,-57.85333333,Cultural,Uruguay,Latin America and the Caribbean,0
Fray Bentos Industrial Landscape,-33.1177777778,-58.3316666667,Cultural,Uruguay,Latin America and the Caribbean,0
Itchan Kala,41.37833,60.36389,Cultural,Uzbekistan,Asia and the Pacific,0
Historic Centre of Bukhara,39.77472,64.42861,Cultural,Uzbekistan,Asia and the Pacific,0
Samarkand  – Crossroad of Cultures,39.66861,67,Cultural,Uzbekistan,Asia and the Pacific,0
Historic Centre of Shakhrisyabz,39.05,66.83333,Cultural,Uzbekistan,Asia and the Pacific,1
Chief Roi Mata’s Domain,-17.6280694444,168.1777194444,Cultural,Vanuatu,Asia and the Pacific,0
Coro and its Port,11.4,-69.68333333,Cultural,Venezuela (Bolivarian Republic of),Latin America and the Caribbean,1
Ciudad Universitaria de Caracas,10.49073,-66.89068,Cultural,Venezuela (Bolivarian Republic of),Latin America and the Caribbean,0
Complex of Hué Monuments,16.46944,107.57778,Cultural,Viet Nam,Asia and the Pacific,0
Hoi An Ancient Town,15.88333333,108.3333333,Cultural,Viet Nam,Asia and the Pacific,0
My Son Sanctuary,15.51666667,108.5666667,Cultural,Viet Nam,Asia and the Pacific,0
Central Sector of the Imperial Citadel of Thang Long - Hanoi,21.0394444444,105.8372222222,Cultural,Viet Nam,Asia and the Pacific,0
Citadel of the Ho Dynasty,20.0780555556,105.6047222222,Cultural,Viet Nam,Asia and the Pacific,0
Old Walled City of Shibam,15.92694,48.62667,Cultural,Yemen,Arab States,1
Old City of Sana'a,15.35555556,44.20805556,Cultural,Yemen,Arab States,1
Historic Town of Zabid,14.19806,43.33,Cultural,Yemen,Arab States,1
Matobo Hills,-20.5,28.5,Cultural,Zimbabwe,Africa,0
Great Zimbabwe National Monument,-20.28333333,30.93333333,Cultural,Zimbabwe,Africa,0
Khami Ruins National Monument,-20.15833333,28.37666667,Cultural,Zimbabwe,Africa,0
The Architectural Work of Le Corbusier an Outstanding Contribution to the Modern Movement,46.4684138889,6.8293361111,Cultural,Switzerland,Latin America and the CaribbeanEurope and North AmericaAsia and the Pacific,0
Qhapaq Ñan Andean Road System,-18.25,-69.5916666667,Cultural,Chile,Latin America and the Caribbean,0
Jesuit Missions of the Guaranis: San Ignacio Mini Santa Ana Nuestra Señora de Loreto and Santa Maria Mayor (Argentina) Ruins of Sao Miguel das Missoes (Brazil),-28.54333333,-54.26583333,Cultural,Brazil,Latin America and the Caribbean,0
Prehistoric Pile Dwellings around the Alps,47.2783333333,8.2075,Cultural,Switzerland,Europe and North America,0
Fertö / Neusiedlersee Cultural Landscape,47.71927778,16.72272222,Cultural,Austria,Europe and North America,0
Struve Geodetic Arc,59.0577777778,26.3377777777,Cultural,Estonia,Europe and North America,0
Belfries of Belgium and France,50.17444,3.23139,Cultural,France,Europe and North America,0
Stećci Medieval Tombstones Graveyards,43.0922138889,17.9240527778,Cultural,Bosnia and Herzegovina,Europe and North America,0
Silk Roads: the Routes Network of Chang'an-Tianshan Corridor,34.3044444444,108.8572222222,Cultural,China,Asia and the Pacific,0
Stone Circles of Senegambia,13.6911111111,-15.5225,Cultural,Senegal,Africa,0
Muskauer Park / Park Mużakowski,51.57930556,14.72644444,Cultural,Germany,Europe and North America,0
Frontiers of the Roman Empire,54.9926111111,-2.601,Cultural,United Kingdom of Great Britain and Northern Ireland,Europe and North America,0
Historic Centre of Rome the Properties of the Holy See in that City Enjoying Extraterritorial Rights and San Paolo Fuori le Mura,41.89022222,12.49230556,Cultural,Italy,Europe and North America,0
Rhaetian Railway in the Albula / Bernina Landscapes,46.4983333333,9.8463888889,Cultural,Switzerland,Europe and North America,0
Curonian Spit,55.27458,20.96239,Cultural,Russian Federation,Europe and North America,0
Wooden Tserkvas of the Carpathian Region in Poland and Ukraine,49.5338888889,21.0322222222,Cultural,Poland,Europe and North America,0
Prehistoric Rock Art Sites in the Côa Valley and Siega Verde,40.6975,-6.6611111111,Cultural,Spain,Europe and North America,0
Heritage of Mercury. Almadén and Idrija,38.7752777778,-4.8388888889,Cultural,Spain,Europe and North America,0
Tassili n'Ajjer,25.5,9,Mixed,Algeria,Arab States,0
Kakadu National Park,-12.83333333,132.8333333,Mixed,Australia,Asia and the Pacific,0
Willandra Lakes Region,-34,143,Mixed,Australia,Asia and the Pacific,0
Tasmanian Wilderness,-41.58333333,145.4166667,Mixed,Australia,Asia and the Pacific,0
Uluru-Kata Tjuta National Park,-25.33333333,131,Mixed,Australia,Asia and the Pacific,0
Ennedi Massif: Natural and Cultural Landscape,17.0416666667,21.8627777778,Mixed,Chad,Africa,0
Mount Taishan,36.26667,117.1,Mixed,China,Asia and the Pacific,0
Mount Huangshan,30.16667,118.18333,Mixed,China,Asia and the Pacific,0
Mount Emei Scenic Area including Leshan Giant Buddha Scenic Area,29.5449,103.76925,Mixed,China,Asia and the Pacific,0
Mount Wuyi,27.71667,117.68333,Mixed,China,Asia and the Pacific,0
Ecosystem and Relict Cultural Landscape of Lopé-Okanda,-0.5,11.5,Mixed,Gabon,Africa,0
Mount Athos,40.26667,24.21667,Mixed,Greece,Europe and North America,0
Meteora,39.71667,21.63333,Mixed,Greece,Europe and North America,0
Tikal National Park,17.21666667,-89.61666667,Mixed,Guatemala,Latin America and the Caribbean,0
Khangchendzonga National Park,27.7647222222,88.3772222222,Mixed,India,Asia and the Pacific,0
The Ahwar of Southern Iraq: Refuge of Biodiversity and the Relict Landscape of the Mesopotamian Cities,31.5622222222,47.6577777778,Mixed,Iraq,Arab States,0
Blue and John Crow Mountains ,18.0775,-76.5711111111,Mixed,Jamaica,Latin America and the Caribbean,0
Wadi Rum Protected Area,29.6397222222,35.4338888889,Mixed,Jordan,Arab States,0
Cliff of Bandiagara (Land of the Dogons),14.33333,-3.41667,Mixed,Mali,Africa,0
Ancient Maya City and Protected Tropical Forests of Calakmul Campeche,18.0530277778,-89.7372833333,Mixed,Mexico,Latin America and the Caribbean,0
Tongariro National Park,-39.29083333,175.5622222,Mixed,New Zealand,Asia and the Pacific,0
Rock Islands Southern Lagoon,7.246925,134.3525,Mixed,Palau,Asia and the Pacific,0
Historic Sanctuary of Machu Picchu,-13.11666667,-72.58333333,Mixed,Peru,Latin America and the Caribbean,0
Río Abiseo National Park,-7.75,-77.25,Mixed,Peru,Latin America and the Caribbean,0
Ibiza Biodiversity and Culture,38.91113889,1.435194444,Mixed,Spain,Europe and North America,0
Laponian Area,67.33333,17.58333,Mixed,Sweden,Europe and North America,0
Natural and Cultural Heritage of the Ohrid region,41.11806,20.81333,Mixed,the Former Yugoslav Republic of Macedonia,Europe and North America,0
Göreme National Park and the Rock Sites of Cappadocia,38.66667,34.85,Mixed,Turkey,Europe and North America,0
Hierapolis-Pamukkale,37.92389,29.12333,Mixed,Turkey,Europe and North America,0
St Kilda,57.81722222,-8.576666667,Mixed,United Kingdom of Great Britain and Northern Ireland,Europe and North America,0
Ngorongoro Conservation Area,-3.18722,35.54083,Mixed,United Republic of Tanzania,Africa,0
Papahānaumokuākea,25.34907,-170.14582,Mixed,United States of America,Europe and North America,0
Trang An Landscape Complex,20.2566666667,105.8963888889,Mixed,Viet Nam,Asia and the Pacific,0
Pyrénées - Mont Perdu,42.68542,-0.0005,Mixed,France,Europe and North America,0
Maloti-Drakensberg Park,-29.7652777778,29.1230555556,Mixed,Lesotho,Africa,0
Los Glaciares National Park,-50,-73.24944,Natural,Argentina,Latin America and the Caribbean,0
Iguazu National Park,-25.51805556,-54.13333333,Natural,Argentina,Latin America and the Caribbean,0
Península Valdés,-42.5,-64,Natural,Argentina,Latin America and the Caribbean,0
Ischigualasto / Talampaya Natural Parks,-30,-68,Natural,Argentina,Latin America and the Caribbean,0
Great Barrier Reef,-18.28611111,147.7,Natural,Australia,Asia and the Pacific,0
Lord Howe Island Group,-31.56555556,159.0883333,Natural,Australia,Asia and the Pacific,0
Gondwana Rainforests of Australia,-28.25,150.05,Natural,Australia,Asia and the Pacific,0
Wet Tropics of Queensland,-15.65,144.9666667,Natural,Australia,Asia and the Pacific,0
Heard and McDonald Islands,-53.1,73.5,Natural,Australia,Asia and the Pacific,0
Shark Bay Western Australia,-25.48611111,113.4361111,Natural,Australia,Asia and the Pacific,0
Macquarie Island,-54.59472222,158.8955556,Natural,Australia,Asia and the Pacific,0
Fraser Island,-25.21666667,153.1333333,Natural,Australia,Asia and the Pacific,0
Australian Fossil Mammal Sites (Riversleigh / Naracoorte),-19.08333333,138.7166667,Natural,Australia,Asia and the Pacific,0
Greater Blue Mountains Area,-33.7,150,Natural,Australia,Asia and the Pacific,0
Purnululu National Park,-17.5,128.5,Natural,Australia,Asia and the Pacific,0
Ningaloo Coast,-22.5625,113.8102777778,Natural,Australia,Asia and the Pacific,0
The Sundarbans,21.95,89.18333,Natural,Bangladesh,Asia and the Pacific,0
Belize Barrier Reef Reserve System,16.75,-87.05833333,Natural,Belize,Latin America and the Caribbean,1
Noel Kempff Mercado National Park,-14.26667,-60.86667,Natural,Bolivia (Plurinational State of),Latin America and the Caribbean,0
Okavango Delta,-19.2833333333,22.9,Natural,Botswana,Africa,0
Iguaçu National Park,-25.68333,-54.43333,Natural,Brazil,Latin America and the Caribbean,0
Discovery Coast Atlantic Forest Reserves,-16.5,-39.25,Natural,Brazil,Latin America and the Caribbean,0
Atlantic Forest South-East Reserves,-24.16667,-48,Natural,Brazil,Latin America and the Caribbean,0
Central Amazon Conservation Complex,-2.333333333,-62.00833333,Natural,Brazil,Latin America and the Caribbean,0
Pantanal Conservation Area,-17.71667,-57.38333,Natural,Brazil,Latin America and the Caribbean,0
Brazilian Atlantic Islands: Fernando de Noronha and Atol das Rocas Reserves,-3.857944444,-32.42511111,Natural,Brazil,Latin America and the Caribbean,0
Cerrado Protected Areas: Chapada dos Veadeiros and Emas National Parks,-14.00569444,-47.68461111,Natural,Brazil,Latin America and the Caribbean,0
Srebarna Nature Reserve,44.11444,27.07806,Natural,Bulgaria,Europe and North America,0
Pirin National Park,41.7427222222,23.4304722222,Natural,Bulgaria,Europe and North America,0
Dja Faunal Reserve,3,13,Natural,Cameroon,Africa,0
Nahanni National Park,61.54722222,-125.5894444,Natural,Canada,Europe and North America,0
Dinosaur Provincial Park,50.76777778,-111.4922222,Natural,Canada,Europe and North America,0
Wood Buffalo National Park,59.35833333,-112.2933333,Natural,Canada,Europe and North America,0
Canadian Rocky Mountain Parks,51.42472222,-116.4797222,Natural,Canada,Europe and North America,0
Gros Morne National Park,49.6125,-57.53138889,Natural,Canada,Europe and North America,0
Miguasha National Park,48.105,-66.35305556,Natural,Canada,Europe and North America,0
Joggins Fossil Cliffs,45.7097222222,-64.4358333333,Natural,Canada,Europe and North America,0
Mistaken Point,46.635,-53.2111111111,Natural,Canada,Europe and North America,0
Manovo-Gounda St Floris National Park,9,21.5,Natural,Central African Republic,Africa,1
Lakes of Ounianga,19.055,20.5055555556,Natural,Chad,Africa,0
Jiuzhaigou Valley Scenic and Historic Interest Area,33.08333,103.91667,Natural,China,Asia and the Pacific,0
Huanglong Scenic and Historic Interest Area,32.75417,103.82222,Natural,China,Asia and the Pacific,0
Wulingyuan Scenic and Historic Interest Area,29.33333,110.5,Natural,China,Asia and the Pacific,0
Three Parallel Rivers of Yunnan Protected Areas,27.895,98.40638889,Natural,China,Asia and the Pacific,0
Sichuan Giant Panda Sanctuaries - Wolong Mt Siguniang and Jiajin Mountains ,30.8333333333,103,Natural,China,Asia and the Pacific,0
South China Karst,24.9233333333,110.3544444444,Natural,China,Asia and the Pacific,0
Mount Sanqingshan National Park,28.9158333333,118.0644444444,Natural,China,Asia and the Pacific,0
China Danxia,28.4219444444,106.0425,Natural,China,Asia and the Pacific,0
Chengjiang Fossil Site,24.6688888889,102.9772222222,Natural,China,Asia and the Pacific,0
Xinjiang Tianshan,41.9683333333,80.3541666667,Natural,China,Asia and the Pacific,0
Hubei Shennongjia,31.4697222222,110.2438888889,Natural,China,Asia and the Pacific,0
Los Katíos National Park,7.666666667,-77,Natural,Colombia,Latin America and the Caribbean,0
Malpelo Fauna and Flora Sanctuary,3.9666666667,-81.6166666666,Natural,Colombia,Latin America and the Caribbean,0
Cocos Island National Park,5.533333333,-87.06666667,Natural,Costa Rica,Latin America and the Caribbean,0
Area de Conservación Guanacaste,10.85,-85.61666667,Natural,Costa Rica,Latin America and the Caribbean,0
Taï National Park,5.75,-7.66667,Natural,Côte d'Ivoire,Africa,0
Comoé National Park,9,-4,Natural,Côte d'Ivoire,Africa,1
Plitvice Lakes National Park,44.87778,15.61444,Natural,Croatia,Europe and North America,0
Alejandro de Humboldt National Park,20.45,-75,Natural,Cuba,Latin America and the Caribbean,0
Desembarco del Granma National Park,19.88333,-77.63333,Natural,Cuba,Latin America and the Caribbean,0
Virunga National Park,0.916666667,29.16666667,Natural,Democratic Republic of the Congo,Africa,1
Garamba National Park,4,29.25,Natural,Democratic Republic of the Congo,Africa,1
Kahuzi-Biega National Park,-2.5,28.75,Natural,Democratic Republic of the Congo,Africa,1
Salonga National Park,-2,21,Natural,Democratic Republic of the Congo,Africa,1
Okapi Wildlife Reserve,2,28.5,Natural,Democratic Republic of the Congo,Africa,1
Ilulissat Icefjord,69.13333333,-49.5,Natural,Denmark,Europe and North America,0
Stevns Klint,55.2672222222,12.4233333333,Natural,Denmark,Europe and North America,0
Morne Trois Pitons National Park,15.26666667,-61.28333333,Natural,Dominica,Latin America and the Caribbean,0
Galápagos Islands,-0.81667,-91,Natural,Ecuador,Latin America and the Caribbean,0
Sangay National Park,-1.83333,-78.33333,Natural,Ecuador,Latin America and the Caribbean,0
Wadi Al-Hitan (Whale Valley),29.33333,30.18333,Natural,Egypt,Arab States,0
Simien National Park,13.1833333333,38.0666666667,Natural,Ethiopia,Africa,1
Gulf of Porto: Calanche of Piana Gulf of Girolata Scandola Reserve,42.32519444,8.628833333,Natural,France,Europe and North America,0
Lagoons of New Caledonia: Reef Diversity and Associated Ecosystems,-20.4119444444,164.5663888889,Natural,France,Europe and North America,0
Pitons cirques and remparts of Reunion Island,-21.0994444444,55.48,Natural,France,Europe and North America,0
Messel Pit Fossil Site,49.91667,8.75389,Natural,Germany,Europe and North America,0
Río Plátano Biosphere Reserve,15.74444444,-84.675,Natural,Honduras,Latin America and the Caribbean,1
Surtsey,63.3030555556,-20.6022222222,Natural,Iceland,Europe and North America,0
Nanda Devi and Valley of Flowers National Parks  ,30.71667,79.66667,Natural,India,Asia and the Pacific,0
Kaziranga National Park,26.66666667,93.41666667,Natural,India,Asia and the Pacific,0
Manas Wildlife Sanctuary,26.725,91.03055556,Natural,India,Asia and the Pacific,0
Keoladeo National Park,27.15888889,77.50861111,Natural,India,Asia and the Pacific,0
Sundarbans National Park,21.945,88.89583333,Natural,India,Asia and the Pacific,0
Western Ghats,8.5297222222,77.2497222222,Natural,India,Asia and the Pacific,0
Great Himalayan National Park Conservation Area,31.8333333333,77.5833333333,Natural,India,Asia and the Pacific,0
Ujung Kulon National Park,-6.75,105.3333333,Natural,Indonesia,Asia and the Pacific,0
Komodo National Park,-8.54333,119.48944,Natural,Indonesia,Asia and the Pacific,0
Lorentz National Park,-4.75,137.83333,Natural,Indonesia,Asia and the Pacific,0
Tropical Rainforest Heritage of Sumatra,-2.5,101.5,Natural,Indonesia,Asia and the Pacific,1
Lut Desert,30.2161111111,58.8388888889,Natural,Iran (Islamic Republic of),Asia and the Pacific,0
Isole Eolie (Aeolian Islands),38.48786111,14.94558333,Natural,Italy,Europe and North America,0
The Dolomites,46.6130555556,12.1630555556,Natural,Italy,Europe and North America,0
Mount Etna,37.7561111111,14.9966666667,Natural,Italy,Europe and North America,0
Yakushima,30.33333333,130.5333333,Natural,Japan,Asia and the Pacific,0
Shirakami-Sanchi,40.47,140.13,Natural,Japan,Asia and the Pacific,0
Shiretoko,43.94944,144.96583,Natural,Japan,Asia and the Pacific,0
Ogasawara Islands,27.7183333333,142.0997222222,Natural,Japan,Asia and the Pacific,0
Saryarka – Steppe and Lakes of Northern Kazakhstan,50.4333333333,69.1888888889,Natural,Kazakhstan,Asia and the Pacific,0
Mount Kenya National Park/Natural Forest,-0.155,37.3155555556,Natural,Kenya,Africa,0
Lake Turkana National Parks,3.051305556,36.50366667,Natural,Kenya,Africa,0
Kenya Lake System in the Great Rift Valley,-0.4425,36.24,Natural,Kenya,Africa,0
Phoenix Islands Protected Area,-3.6497222222,-172.8575,Natural,Kiribati,Asia and the Pacific,0
Tsingy de Bemaraha Strict Nature Reserve,-18.66667,44.75,Natural,Madagascar,Africa,0
Rainforests of the Atsinanana,-14.4597222222,49.7025,Natural,Madagascar,Africa,1
Lake Malawi National Park,-14.03333,34.88333,Natural,Malawi,Africa,0
Kinabalu Park,6.25,116.5,Natural,Malaysia,Asia and the Pacific,0
Gunung Mulu National Park,4.13333,114.91667,Natural,Malaysia,Asia and the Pacific,0
Banc d'Arguin National Park,20.23472,-16.10889,Natural,Mauritania,Arab States,0
Sian Ka'an,19.38333,-87.79167,Natural,Mexico,Latin America and the Caribbean,0
Whale Sanctuary of El Vizcaino,27.79222,-114.22778,Natural,Mexico,Latin America and the Caribbean,0
Islands and Protected Areas of the Gulf of California,27.62667,-112.54583,Natural,Mexico,Latin America and the Caribbean,0
Monarch Butterfly Biosphere Reserve,19.6063888889,-100.2416666667,Natural,Mexico,Latin America and the Caribbean,0
El Pinacate and Gran Desierto de Altar Biosphere Reserve,32,-113.9166666667,Natural,Mexico,Latin America and the Caribbean,0
Archipiélago de Revillagigedo,18.7880555556,-110.9752777778,Natural,Mexico,Latin America and the Caribbean,0
Durmitor National Park,43.133,19.0166,Natural,Montenegro,Europe and North America,0
Namib Sand Sea,-24.8852777778,15.4077777778,Natural,Namibia,Africa,0
Sagarmatha National Park,27.96528,86.91306,Natural,Nepal,Asia and the Pacific,0
Chitwan National Park,27.5,84.33333,Natural,Nepal,Asia and the Pacific,0
Te Wahipounamu – South West New Zealand,-45.03602778,167.3196111,Natural,New Zealand,Asia and the Pacific,0
New Zealand Sub-Antarctic Islands,-50.75,166.1044444,Natural,New Zealand,Asia and the Pacific,0
Air and Ténéré Natural Reserves,18,9,Natural,Niger,Africa,1
W National Park of Niger,12.35,2.35,Natural,Niger,Africa,0
West Norwegian Fjords – Geirangerfjord and Nærøyfjord,62.11667,7.16667,Natural,Norway,Europe and North America,0
Darien National Park,7.736111111,-77.54722222,Natural,Panama,Latin America and the Caribbean,0
Coiba National Park and its Special Zone of Marine Protection,7.433,-81.766,Natural,Panama,Latin America and the Caribbean,0
Huascarán National Park,-9.33333,-77.4,Natural,Peru,Latin America and the Caribbean,0
Manú National Park,-12.25,-71.75,Natural,Peru,Latin America and the Caribbean,0
Puerto-Princesa Subterranean River National Park,10.16666667,118.9166667,Natural,Philippines,Asia and the Pacific,0
Tubbataha Reefs Natural Park,8.9533333333,119.8675,Natural,Philippines,Asia and the Pacific,0
Mount Hamiguitan Range Wildlife Sanctuary,6.7171694444,126.1734305556,Natural,Philippines,Asia and the Pacific,0
Laurisilva of Madeira,32.76666667,-17,Natural,Portugal,Europe and North America,0
Jeju Volcanic Island and Lava Tubes,33.4688888889,126.7202777777,Natural,Republic of Korea,Asia and the Pacific,0
Danube Delta,45.08333,29.5,Natural,Romania,Europe and North America,0
Virgin Komi Forests,63.6258333333,58.9525,Natural,Russian Federation,Europe and North America,0
Lake Baikal,53.17361111,107.6625,Natural,Russian Federation,Europe and North America,0
Volcanoes of Kamchatka,56.33333333,158.5,Natural,Russian Federation,Europe and North America,0
Central Sikhote-Alin,45.33333333,136.1666667,Natural,Russian Federation,Europe and North America,0
Golden Mountains of Altai,50.46666667,86,Natural,Russian Federation,Europe and North America,0
Western Caucasus,44,40,Natural,Russian Federation,Europe and North America,0
Natural System of Wrangel Island Reserve,71.18888889,-179.7152778,Natural,Russian Federation,Europe and North America,0
Putorana Plateau,69.0469444444,94.1580555556,Natural,Russian Federation,Europe and North America,0
Lena Pillars Nature Park,60.6666666667,127,Natural,Russian Federation,Europe and North America,0
Pitons Management Area,13.80708333,-61.07036111,Natural,Saint Lucia,Latin America and the Caribbean,0
Djoudj National Bird Sanctuary,16.5,-16.16667,Natural,Senegal,Africa,0
Niokolo-Koba National Park,13.06667,-12.71667,Natural,Senegal,Africa,1
Aldabra Atoll,-9.416666667,46.41666667,Natural,Seychelles,Africa,0
Vallée de Mai Nature Reserve,-4.32917,55.7375,Natural,Seychelles,Africa,0
Škocjan Caves,45.66667,14,Natural,Slovenia,Europe and North America,0
East Rennell,-11.68333,160.33333,Natural,Solomon Islands,Asia and the Pacific,1
iSimangaliso Wetland Park,-27.83889,32.55,Natural,South Africa,Africa,0
Cape Floral Region Protected Areas,-34.3611111111,18.475,Natural,South Africa,Africa,0
Vredefort Dome,-26.86,27.26,Natural,South Africa,Africa,0
